,id,communityName,lat,lng
0,1,万科府前一号,22.798132321417484,113.52609260221314
1,2,富雅名居,23.18116026650545,113.6813202434388
2,3,广州融创文旅城商务公寓,23.434588034956132,113.24227899507626
3,4,祺康园,22.947764210056683,113.35953122003292
4,5,中山八路,23.131180637034085,113.23751917601112
5,6,君华江畔豪园,23.112143001071246,113.262139990912
6,7,纵横缤城,23.201414662200243,113.25903661486772
7,8,紫泉流溪湾,23.451743830743958,113.47908481387482
8,9,富力金港城南区,23.462304994070827,113.36406191370155
9,10,天马丽苑二期,23.37494336951844,113.19123287431918
10,11,珠岛花园,23.13668937911409,113.23120181017529
11,12,银珠苑小区,23.39425270725787,113.22209173467941
12,13,祈福万景峰祈福天龙苑,23.377225541005387,113.20211719302723
13,14,桥东小区,23.117496991764813,113.21981066749868
14,15,龙光棕榈水岸北区,22.79887228751513,113.53103058759984
15,16,富力金港城东区,23.463730703893827,113.3689116854872
16,17,云山诗意,23.225537334807026,113.29704311250738
17,18,碧桂园凤凰城凤妍苑,23.13252435438384,113.58282086464115
18,19,勤天一品树院,23.498411021195828,113.23214251570502
19,20,桥福园,22.953744037358497,113.39023997354246
20,21,南沙万达广场,22.800845871503,113.53886812351071
21,22,南沙万达广场,22.800845871503,113.53886812351071
22,23,云山熹景,23.18216247071478,113.33041390456431
23,24,富丽花园,23.300159916553266,113.82927349647763
24,25,雅居乐·岭会,23.474653860829395,113.235504424075
25,26,绿庭雅苑,22.960451691870286,113.43842966243987
26,27,海景居,23.55746703862409,113.60683697261193
27,28,花城路,23.38729026947369,113.2195094548816
28,29,富力金港城东区,23.463730703893827,113.3689116854872
29,30,路劲隽悦豪庭一期,23.42372403343678,113.20041795832512
30,31,汇东国际花园,23.124520203888462,113.59031147496418
31,32,晓港湾,23.075949541056513,113.3004741904016
32,33,黄埔花园,23.104960992043384,113.4644519561054
33,34,保利西海岸汇海花园,23.179794193547032,113.21551901292618
34,35,碧桂园城市花园花岸苑,23.279160557125746,113.68621268473618
35,36,保利东江首府,23.11516902284898,113.63808902129374
36,37,广州时代云图,22.798089092745638,113.55246361807754
37,38,红棉苑北区,23.098108025798368,113.23924101567309
38,39,泽德花苑,23.18235772814676,113.24540024740021
39,40,森悦华庭,23.376959998766228,113.22299902324418
40,41,锦绣御景国际四期,23.295390876723815,113.8186298338156
41,42,如意中心,23.045793017049157,113.30980057786422
42,43,龙津西路,23.46729518677622,113.16345948228292
43,44,南洲花苑AB区,23.076134481884385,113.31082734106177
44,45,锦绣半岛金月湾,23.044307159778885,113.26347092035515
45,46,翠馨华庭,23.090161722363813,113.32185925136507
46,47,万科城市花园,23.112610337146748,113.47363668078916
47,48,南沙时代,22.804159795072735,113.57940380031289
48,49,逢源路,23.125829042694445,113.2460192652354
49,50,白云明珠广场,23.18711790055589,113.26587963674882
50,51,中海誉城北苑,23.16838317937296,113.53315184623041
51,52,祈福万景峰祈福天龙苑,23.377225541005387,113.20211719302723
52,53,黄埔花园,23.104960992043384,113.4644519561054
53,54,合生颐景华苑,23.076840413205257,113.30224870310542
54,55,珠岛花园,23.13668937911409,113.23120181017529
55,56,南沙境界家园,22.818877068287442,113.53263639852895
56,57,石楼东环路,22.976722389254032,113.49623894571825
57,58,红棉苑南区,23.095781462123156,113.23915352071644
58,59,南岸路,23.139203779445204,113.23675045017289
59,60,合益小区,23.182108237102135,113.25556673017546
60,61,宝铼雅居,23.402281449702524,113.17074773581531
61,62,金碧御水山庄,23.492600648042288,113.20871030631554
62,63,托斯卡纳(白云区),23.243382177175874,113.3186704464668
63,64,富力现代广场,23.097598254625584,113.26240130798477
64,65,金域蓝湾,23.162547638475665,113.21859624828012
65,66,黄埔万科中心,23.10164354335966,113.47555195796635
66,67,荔富湖畔,23.28546231844429,113.75560202433985
67,68,紫泉流溪湾,23.451743830743958,113.47908481387482
68,69,丰庭花园,22.796382923455848,113.54405619715133
69,70,景安街公安宿舍,23.174835499280025,113.26276817595493
70,71,越秀岭南雅筑,23.13526012014849,113.27342648099675
71,72,东城雅苑,23.112529234844825,113.55096344787637
72,73,广州海伦堡,23.10644899708362,113.56502049181407
73,74,紫泉翠荔嘉园,23.448331500951248,113.49350737832441
74,75,怡港花园,23.105254422705386,113.46075156621939
75,76,南沙城,22.804920550078272,113.54461126012576
76,77,富雅都市华庭,23.138898830447953,113.63085335007435
77,78,宏发楼,23.105890643969442,113.23025975718728
78,79,广州雅居乐花园一尺山居,23.013930998832038,113.36600997902984
79,80,保税广场,23.071810955202306,113.53884377943142
80,81,庄士映蝶蓝湾,22.974472146058048,113.49935426922582
81,82,白云畔山花园,23.188004039774313,113.32433300507763
82,83,恒大御景湾,23.055467560983427,113.34619300016406
83,84,中海誉城北苑,23.16838317937296,113.53315184623041
84,85,万科四季花城俪姗美筑,23.16127698250209,113.19374803991575
85,86,荔尚国际,23.122515164768682,113.25050594642558
86,87,中国铁建国际花园,23.279780007721996,113.68394572095195
87,88,鸿图苑,23.090448952438003,113.23242808702656
88,89,蓝色康园,23.10845112118788,113.30954402181065
89,90,东方白云花园,23.195961420123773,113.26838626844302
90,91,上城湾畔东区,23.53530097081433,113.59624711844995
91,92,万华花园,23.07641426154223,113.30697953924161
92,93,雅居乐锦城花语集,23.42079702981817,113.19755101629097
93,94,瀚成华府,22.808597583089032,113.40202888589877
94,95,锦林山庄,23.18053811039168,113.46978277049153
95,96,锦绣新天地,23.125013337000382,113.62934626292076
96,97,合景誉山国际,23.19553357508218,113.60127547337095
97,98,祈福新村倚云居,22.963530409844537,113.32386543705984
98,99,云山雅苑,23.175865658535564,113.27522156489674
99,100,保利林语山庄,23.188750900204404,113.4612718647706
100,101,恒大御景半岛,23.18248704139586,113.2166799829669
101,102,海洋广场,23.53506200695083,113.60791296295143
102,103,白沙新村,23.18865904814281,113.26270709118027
103,104,南岸路,23.139203779445204,113.23675045017289
104,105,紫薇花园,23.40963904640948,113.2396094107626
105,106,官洲南苑,23.083037619464143,113.38665941761143
106,107,晓翠苑,23.394686291328544,113.23076056250893
107,108,万科山景城,23.217233006010012,113.53128301144808
108,109,红楼泳场宿舍,23.16194059588004,113.2556210776588
109,110,雅宝新城英伦世家,23.43271304906048,113.19275783775241
110,111,嘉骏豪苑,23.124159264185938,113.63703324282821
111,112,怡安花园,23.114710836264376,113.28073958615107
112,113,北丽园,22.949324856364232,113.36983828762045
113,114,豪进山湖珺璟,23.12421410315428,113.59716527651139
114,115,美力百富雅苑二期,23.393319530628137,113.23544549523356
115,116,祈福万景峰,23.375834050571104,113.20464897727572
116,117,保利塞纳维拉,23.08422707432734,113.2107434411756
117,118,恒大御景半岛,23.18248704139586,113.2166799829669
118,119,名汇商业大厦,23.12086581021579,113.25395615822717
119,120,御金沙,23.171217045984253,113.21042903424721
120,121,时代倾城(番禺区),23.004737453974663,113.4059051640036
121,122,金名都,23.16443736053909,113.26591386218874
122,123,黄沙大道南站新街,23.116646194325405,113.24305773612261
123,124,大运家园,23.407708152595543,113.24213607466967
124,125,保利学府里,23.109372937404366,113.44713388350648
125,126,时代水岸,23.135336306695006,113.27143134445974
126,127,翡翠绿洲森林半岛,23.141714967627404,113.56704706904391
127,128,新塘新世界花园嘉华苑,23.113700892384827,113.58300780201772
128,129,元邦航空家园,23.211099367024065,113.26543641281035
129,130,广州雅居乐花园剑桥郡,23.016769409270093,113.36801320031643
130,131,西苑小区,23.381954872593894,113.19028552132868
131,132,龙光棕榈水岸北区,22.79887228751513,113.53103058759984
132,133,丰庭花园,22.796382923455848,113.54405619715133
133,134,翠逸家园,23.177420392289665,113.26453846662285
134,135,创鸿嘉园,22.804178035252875,113.54920025382197
135,136,新兴白云花园,23.221399018401556,113.29651068683178
136,137,永泰新村,23.229172400363588,113.30987172366058
137,138,华侨城(番禺),22.93856211691919,113.35947184203873
138,139,石化生活区,23.11015414525277,113.47738647747822
139,140,优山悦海,22.765940364848813,113.61152100703106
140,141,江南大道中涌尾大街,23.1128690996927,113.27856874105638
141,142,碧桂园凤凰城凤锦苑,23.15670494565311,113.58752618890087
142,143,三角楼,23.112253519886302,113.45791570555588
143,144,商业大道,23.368589591389362,113.37498735503921
144,145,优山悦海,22.765940364848813,113.61152100703106
145,146,柏丽星寓,22.97175536693557,113.49515145706822
146,147,美荔尚筑,23.13122773722743,113.25432581094441
147,148,合景天峻广场,23.067488202325936,113.39871297077089
148,149,湖畔花园,23.378738010244646,113.22752998640448
149,150,南沙奥园,22.758162205586228,113.60045388315179
150,151,敏捷君御国际,22.804975103726267,113.55924977721988
151,152,岭南新世界锦云峰,23.242499979091193,113.30572110305309
152,153,丰逸尚居,23.10443254929212,113.4747323440193
153,154,顺欣广场,23.152180018832283,113.63033448881197
154,155,越秀滨海珺城,23.13526012014849,113.27342648099675
155,156,嘉鸿花园金玫瑰苑,23.072511340324436,113.29917074910705
156,157,金茂湾,22.786840671106557,113.5274810232089
157,158,海璟奥园,22.804200356565843,113.54662930345326
158,159,海外花园,23.093291549230106,113.28158471197456
159,160,双子星城,23.095396592455398,113.3055309317767
160,161,接龙里小区,23.128134461400652,113.25127076283823
161,162,万科峯境,23.178514400945446,113.28041161480947
162,163,御金沙澜山,23.1720128401021,113.21290781847064
163,164,自由人花园,23.34981338693339,113.2313289204049
164,165,黄埔花园,23.104960992043384,113.4644519561054
165,166,合景天峻广场,23.067488202325936,113.39871297077089
166,167,东鹏花园一期,23.087592581308357,113.23312651956033
167,168,银城花园,23.303585897602122,113.83493309068027
168,169,泽德花苑,23.18235772814676,113.24540024740021
169,170,钻石豪园,23.40976374225241,113.23604071246429
170,171,叠彩园,23.092174065140423,113.3173661966973
171,172,中海誉城北苑,23.16838317937296,113.53315184623041
172,173,园圃路,23.29212665500483,113.83557909990111
173,174,锦绣新天地,23.125013337000382,113.62934626292076
174,175,智烨山水豪庭,23.44558499558265,113.1968296769667
175,176,佳兆业城市广场,23.108458766313987,113.55685534388381
176,177,保利花园,23.077387584285614,113.28025351303977
177,178,时尚广场,23.134961770884647,113.61104616273865
178,179,西增路,23.149748472422583,113.2457409387478
179,180,万科四季花城灏山美筑,23.16127698250209,113.19374803991575
180,181,御鹿华轩山畔雍庭,23.164606977349788,113.28564702915045
181,182,新塘新世界花园嘉华苑,23.113700892384827,113.58300780201772
182,183,东湖洲花园1区,22.931916063122625,113.4231722128496
183,184,华丽苑,23.07579211257158,113.24279956311912
184,185,富城华府,23.31165470613078,113.83096159219141
185,186,金泽华庭,23.121443294369435,113.62500879476727
186,187,骏辉雅苑,23.424497161982064,113.21920359263524
187,188,岭南新世界锦云峰,23.242499979091193,113.30572110305309
188,189,海虹路,23.08919980934008,113.43503096306942
189,190,金茂湾,22.786840671106557,113.5274810232089
190,191,建华南路,23.023417438012363,113.32124180107299
191,192,南沙境界家园,22.818877068287442,113.53263639852895
192,193,珠岛花园,23.13668937911409,113.23120181017529
193,194,尚东阳光雅苑,23.108518847017972,113.58039328383178
194,195,紫光园,23.409778251401946,113.2351795968027
195,196,时代糖果一期,23.16284634095344,113.21365269339927
196,197,华标荔苑,23.45653320886069,113.49649083058316
197,198,金泽华庭,23.121443294369435,113.62500879476727
198,199,永安居,23.294964017986633,113.31548397716287
199,200,合和新城,23.378914068557403,113.26294568112365
200,201,宏康花园二期康晖苑,23.11413980426966,113.55109082759765
201,202,豪进山湖珺璟,23.12421410315428,113.59716527651139
202,203,广工大院,23.14037615304962,113.30524751638839
203,204,紫泉流溪湾,23.451743830743958,113.47908481387482
204,205,红棉苑南区,23.095781462123156,113.23915352071644
205,206,南沙奥园,22.758162205586228,113.60045388315179
206,207,穗发花园,23.095896980980985,113.30394703950202
207,208,紫泉翠荔嘉园,23.448331500951248,113.49350737832441
208,209,保利塞纳维拉,23.08422707432734,113.2107434411756
209,210,人盛巴厘天地,23.498195851359295,113.54234393701933
210,211,学府南苑,23.428767275999654,113.18503169172475
211,212,芙蓉春晓,23.428479930137353,113.21909313968467
212,213,岭南新世界,23.23844728767068,113.3005949226621
213,214,德盛苑,23.092548056846127,113.32626454158455
214,215,锦绣半岛金月湾,23.044307159778885,113.26347092035515
215,216,江南大道中,23.1128690996927,113.27856874105638
216,217,安富花园,23.128438463540583,113.25924493191542
217,218,恒福花园,23.127276657369876,113.622046452688
218,219,银建小区,23.136958729104325,113.24936428995333
219,220,云天翠庭,23.187250032844144,113.26319343378323
220,221,万科山景城,23.217233006010012,113.53128301144808
221,222,新鸿基御华园,23.452713555998773,113.19779257064253
222,223,金碧花园第一金碧,23.07561697939704,113.29350998710724
223,224,黄石花园,23.134165089485226,113.3361518310074
224,225,汇侨新城东区,23.20317179588506,113.2666253201524
225,226,保利百合花园,23.079724277851405,113.28335293653984
226,227,金宇花园,23.066617051362815,113.26015401709121
227,228,奥园中环广场,22.80551955625163,113.5467123967129
228,229,荔景苑,23.429277922891828,113.4273346910898
229,230,东苑小区,22.941848015486052,113.38093469625933
230,231,富力唐宁花园,23.159791752376425,113.24889887786875
231,232,亚运城运动员村三区,22.951811636002628,113.48818294190741
232,233,保利花城花园,23.42435987935736,113.20361242254809
233,234,禺华园,22.949021431140885,113.36735276610572
234,235,祈福新村晓峰园,22.95979522562258,113.32914307175976
235,236,东馨美居,23.3968380212112,113.20734515143248
236,237,南岸路,23.139203779445204,113.23675045017289
237,238,朗晴居二期,23.1160219902151,113.27937182618201
238,239,龙津大厦,23.12886004469775,113.25270356102448
239,240,合汇·中央广场,23.288168612158056,113.82617542043583
240,241,番禺海伦堡花样年华一期,22.93037655723567,113.36192915676045
241,242,力迅时光里,23.108430346386445,113.27676521308457
242,243,祈福新村海晴居,22.96631981285762,113.32813472382514
243,244,东湖映月,23.28067316005623,113.32822778827597
244,245,嘉骏豪苑,23.124159264185938,113.63703324282821
245,246,敏捷华美国际,23.012307573537957,113.33547648492522
246,247,侨诚花园,23.074898324192294,113.29852298100401
247,248,银业国际公寓,23.094021158379547,113.32319709776063
248,249,梅苑小区,23.183210013911562,113.32835400020006
249,250,兴和阁,23.111347345983592,113.22237092803182
250,251,天汇大厦,23.183510995216086,113.34369499220274
251,252,芳雅苑,23.113895502869568,113.2252079564925
252,253,江南苑,23.098281467223426,113.26877721100085
253,254,南沙境界家园,22.818877068287442,113.53263639852895
254,255,宏康花园宏康和园,23.115382659905073,113.55353215248131
255,256,广州海伦堡,23.10644899708362,113.56502049181407
256,257,敏捷伊顿公馆,22.973590155511065,113.34873412678985
257,258,司法大厦,23.1277284859379,113.24424340956483
258,259,金碧花园第一金碧,23.07561697939704,113.29350998710724
259,260,亚运城天荟,22.946116018665432,113.48424944174164
260,261,新景豪庭,23.12808301823635,113.59140839582206
261,262,华发四季名苑,23.23707508246236,113.30396168188184
262,263,尚东尚筑,22.94501069569993,113.41210041778167
263,264,叠翠峰,22.80297651016544,113.52734322314372
264,265,海龙湾,23.03305236670352,113.30681407136672
265,266,新世界逸彩庭园,23.117144674705777,113.21325447456682
266,267,恒大山水城,23.30161668301231,113.6235830042623
267,268,保利红棉花园,23.081315795915543,113.28331125516418
268,269,富力金港城北区,23.4658479822845,113.36448250034117
269,270,南岸路,23.139203779445204,113.23675045017289
270,271,亚运城天誉,22.956585807170832,113.49319755275411
271,272,时代糖果三期,23.16284634095344,113.21365269339927
272,273,中大城,22.799288995585655,113.5441659700846
273,274,宏康花园四期康慧苑,23.113634000158296,113.55359485420588
274,275,中海誉城北苑,23.16838317937296,113.53315184623041
275,276,金碧花园第二金碧,23.071705473192697,113.29507151157473
276,277,御景宏雅花园,23.53510101979875,113.61172501221232
277,278,公园前9号小区,23.390580991137078,113.21668797788591
278,279,美林轩逸时光,23.36913787159751,113.25635355597139
279,280,碧桂园凤凰城凤馨苑,23.14601860617728,113.6044769443769
280,281,合景誉山国际,23.19553357508218,113.60127547337095
281,282,广州海伦堡,23.10644899708362,113.56502049181407
282,283,富丽家园富丽广场,23.02558104424268,113.32005302847675
283,284,西濠二马路,23.12440792964447,113.6122963569741
284,285,鸿城花园,22.952309818348905,113.37262123808944
285,286,景云居,23.170451647169195,113.28347151286711
286,287,碧桂园蜜柚,22.805898681140704,113.56840521714399
287,288,星汇峰,23.447461288712194,113.49950743031522
288,289,金逸雅居,23.10107170722004,113.4639922931761
289,290,锐丰中心,23.179759476771757,113.50792760717965
290,291,合景誉山国际,23.19553357508218,113.60127547337095
291,292,南沙滨海花园,22.787315392426873,113.53523887942106
292,293,新世界逸彩庭园,23.117144674705777,113.21325447456682
293,294,祈福新村D区,22.966999040441117,113.34738900411966
294,295,碧桂园凤凰城凤妍苑,23.13252435438384,113.58282086464115
295,296,荟翠雅苑,22.811076477506806,113.40789401240204
296,297,南华东路,23.115898894192167,113.27142163287888
297,298,名汇商业大厦,23.12086581021579,113.25395615822717
298,299,逸涛雅苑,22.810240467884324,113.5437043308832
299,300,环城中路,22.97923174985259,113.50896764014622
300,301,中海名都,23.115777359901386,113.28265674976983
301,302,富力金港城北区,23.4658479822845,113.36448250034117
302,303,保利城花园塞汶西街,23.381939862798554,113.17057499166579
303,304,岭南花园,23.16752481762813,113.23877057307764
304,305,荔湾路,22.8030093278675,113.40578784620234
305,306,中环品悦,23.016868115978696,113.33622378527873
306,307,金名都,23.16443736053909,113.26591386218874
307,308,假日花园,23.132310661848372,113.60088039860779
308,309,星汇金沙花园,23.164662297966807,113.20326980882672
309,310,花语水岸,23.1320164601698,113.2214507038677
310,311,新光百德广场,23.454209819650128,113.49840251453831
311,312,南沙碧桂园,22.801756983727177,113.56431801690549
312,313,美华中学教师宿舍,23.149105994219667,113.24555996611983
313,314,雅居乐小院流溪,23.520070599152085,113.57179299671266
314,315,雅居乐富春山居,23.19095333740335,113.4370683702705
315,316,恒宝华庭,23.123496874128993,113.24792538418792
316,317,广州星河丹堤,22.779262563117527,113.57090277595256
317,318,宏康花园四期康慧苑,23.113634000158296,113.55359485420588
318,319,尚东阳光雅苑,23.108518847017972,113.58039328383178
319,320,皇冠国际公寓,23.068062427340916,113.52286570916125
320,321,锦绣银苑,23.11259787265685,113.61016779961128
321,322,黄埔花园,23.104960992043384,113.4644519561054
322,323,华标荔苑,23.45653320886069,113.49649083058316
323,324,丹桂园,22.953524982802083,113.364572959706
324,325,君荟名轩,23.14920684568855,113.249366356056
325,326,百事佳新村A区,23.17253511632538,113.2736997455328
326,327,紫泉流溪湾,23.451743830743958,113.47908481387482
327,328,白云高尔夫花园荷塘月色,23.205058446495876,113.27721993533359
328,329,中国铁建国际花园,23.279780007721996,113.68394572095195
329,330,锦绣天伦花园,23.132460628846506,113.64539835356491
330,331,新都盛世名门宏城汇,23.12907748167652,113.60523807863524
331,332,时代春树里,23.166089246254554,113.51721563699702
332,333,侨诚花园,23.074898324192294,113.29852298100401
333,334,长乐花苑二期,23.148139178631624,113.25140299430754
334,335,保利塞纳维拉,23.08422707432734,113.2107434411756
335,336,祈福辉煌台,23.383155567723847,113.19941526971522
336,337,雅居乐小院流溪,23.520070599152085,113.57179299671266
337,338,越秀岭南雅筑,23.13526012014849,113.27342648099675
338,339,革新路,23.09554221476949,113.26103406274478
339,340,金鹤苑,23.06813998244027,113.23132164413029
340,341,时代春树里,23.166089246254554,113.51721563699702
341,342,奥园广场,22.930078248099555,113.36428154939867
342,343,雅居乐锦城花语集,23.42079702981817,113.19755101629097
343,344,富力泉天下,23.641979543138874,113.65856679369243
344,345,万科金色悦府,23.114014329797207,113.47104911176851
345,346,信和广场,23.096009258565946,113.28121137620475
346,347,南岸路,23.139203779445204,113.23675045017289
347,348,东方苑,23.444516249885652,113.27852840713899
348,349,雍逸华庭,22.929664275463722,113.38219349177007
349,350,金域蓝湾,23.162547638475665,113.21859624828012
350,351,富景花园,23.098347951657885,113.29610429341919
351,352,人盛巴厘天地,23.498195851359295,113.54234393701933
352,353,万科柏悦湾,23.124239029950587,113.23014693001527
353,354,人盛巴厘天地,23.498195851359295,113.54234393701933
354,355,宝盛园,23.12694073454431,113.24595288494976
355,356,宏康花园三期建鑫苑,23.113034129106897,113.55218298743631
356,357,庄士映蝶蓝湾,22.974472146058048,113.49935426922582
357,358,南源花园,23.13965136811024,113.2413313725941
358,359,紫薇花园,23.40963904640948,113.2396094107626
359,360,东馨美居,23.3968380212112,113.20734515143248
360,361,东晓路凤岗脚,23.091593461708776,113.29711901932293
361,362,前进路聚龙新街,23.104530027567517,113.28465997105643
362,363,石碁城市花园,22.946754996839392,113.40963600644642
363,364,南航明珠雅苑,23.18362760037186,113.26228479776017
364,365,富力金港城南区,23.462304994070827,113.36406191370155
365,366,广州雅居乐花园时光九篇,23.01637150490598,113.38148939991156
366,367,新塘新世界花园万象苑,23.113635745173326,113.57919027309322
367,368,丛桂路,23.1133777879108,113.24379520542061
368,369,云峰花园1期,23.38388399015449,113.25320113244628
369,370,锦绣生态园,22.974185747238355,113.31296234376663
370,371,岭南花园,23.16752481762813,113.23877057307764
371,372,康和楼,23.135336306695006,113.27143134445974
372,373,怡雅花园,23.377889643038113,113.22603484671414
373,374,嘉仕花园东区,23.10808091373911,113.30158611296147
374,375,宝铼雅居,23.402281449702524,113.17074773581531
375,376,锦绣银湾,23.033855890362645,113.33306965497314
376,377,海琴湾,23.109195355529977,113.31429183592095
377,378,晓翠苑,23.394686291328544,113.23076056250893
378,379,奥园春晓,23.217251604942366,113.5055509602927
379,380,实地常春藤,23.217526021921014,113.56494656127062
380,381,荷景花园一区,22.909483992092674,113.35144898570123
381,382,豪丰园,23.11438393902907,113.26941527740438
382,383,白云高尔夫花园荷塘月色,23.205058446495876,113.27721993533359
383,384,富力现代广场,23.097598254625584,113.26240130798477
384,385,增城雅居乐御宾府,23.302455420018042,113.81125618286994
385,386,合景誉山国际,23.19553357508218,113.60127547337095
386,387,广州融创文旅城商务公寓,23.434588034956132,113.24227899507626
387,388,海滨花园,23.042514747558634,113.31474107850634
388,389,翡翠绿洲森林半岛,23.141714967627404,113.56704706904391
389,390,祈福都会花园,23.437620002400497,113.27047608638075
390,391,德盛苑,23.092548056846127,113.32626454158455
391,392,富力天海湾,22.753730089865286,113.57038930452323
392,393,罗马家园,23.06429708534597,113.32595336855599
393,394,中国铁建国际花园,23.279780007721996,113.68394572095195
394,395,锦绣银湾,23.033855890362645,113.33306965497314
395,396,金碧世纪花园,23.12051782286747,113.4358903324251
396,397,森语星园,23.07430318231317,113.32077176271504
397,398,文辰阁,23.086799521846217,113.24569857465997
398,399,合益小区,23.182108237102135,113.25556673017546
399,400,宝铼雅居,23.402281449702524,113.17074773581531
400,401,祈乐苑,23.10331997887651,113.29427103153503
401,402,南景园,23.08570999238404,113.28274631082914
402,403,大墩一街,23.161372306710618,113.30179684285778
403,404,白云骏景家园,23.202437389922082,113.27808545269217
404,405,富力环市西苑,23.147499172405958,113.24585227473267
405,406,光大花园榕岸,23.089185002489106,113.26193400945864
406,407,广州雅居乐花园剑桥郡,23.016769409270093,113.36801320031643
407,408,南沙心意华庭,22.78675220732431,113.55433263252097
408,409,新塘新世界花园万象苑,23.113635745173326,113.57919027309322
409,410,碧桂园蜜柚,22.805898681140704,113.56840521714399
410,411,祥辉广场,23.099483999288687,113.48659500725796
411,412,碧桂园凤凰城凤锦苑,23.15670494565311,113.58752618890087
412,413,碧桂园凤凰城凤晴苑,23.164391509140618,113.58792323993613
413,414,华兴花园(从化区),23.55412621582641,113.58983716965507
414,415,万科里享家,23.201815084795715,113.5731367719246
415,416,富域尚品居,23.10230479594469,113.5479039989715
416,417,保利花城花园,23.42435987935736,113.20361242254809
417,418,富力金港城北区,23.4658479822845,113.36448250034117
418,419,康乃馨苑,23.087089585015484,113.23868900693738
419,420,南国奥林匹克花园,22.992076134642787,113.32798632375496
420,421,荔港南湾,23.14131012614732,113.23573978011855
421,422,流溪河山庄,23.521184618393804,113.56294953829205
422,423,雅宝新城,23.436407538855747,113.19114349292097
423,424,萝岗敏捷广场,23.008297573490914,113.3532574543533
424,425,锦绣天伦花园,23.132460628846506,113.64539835356491
425,426,西宁西路,23.112568515205353,113.61368354010487
426,427,中海誉城北苑,23.16838317937296,113.53315184623041
427,428,碧桂园蜜柚,22.805898681140704,113.56840521714399
428,429,工业大道南425号大院,23.583050635651087,113.65814845281658
429,430,金碧领秀国际,23.104242329331253,113.46753763553117
430,431,赤岗综合楼,23.102081497871794,113.33894053063166
431,432,富力金港城东区,23.463730703893827,113.3689116854872
432,433,惠百氏广场,23.128698690775014,113.60050562554913
433,434,港湾路,23.54402675277461,113.60111709941467
434,435,南箕路,23.07607357537073,113.27590059942135
435,436,富力桃园,23.15482898595702,113.23964210908316
436,437,碧桂园凤凰城凤仪苑,23.138592015180585,113.57806676239228
437,438,小城之春雅居,23.406106887813216,113.21432220049562
438,439,金域蓝湾,23.162547638475665,113.21859624828012
439,440,英豪花园,23.074854187365055,113.30381193435338
440,441,大城云山,23.4653147708202,113.49918448948449
441,442,泰沙路,23.08799791631075,113.29220652784659
442,443,亚运城媒体北村,22.952192011869396,113.49953500829436
443,444,益鹏翠苑,23.07126401054097,113.30975260835
444,445,又一居花园,23.176504863213534,113.26482565489431
445,446,丰庭花园,22.796382923455848,113.54405619715133
446,447,广州雅居乐花园一尺山居,23.013930998832038,113.36600997902984
447,448,实地常春藤,23.217526021921014,113.56494656127062
448,449,东湖洲花园1区,22.931916063122625,113.4231722128496
449,450,珠殿苑,22.950118733964096,113.38046991298863
450,451,和平南小区,23.142165916213376,113.24529793040266
451,452,黄石花园,23.134165089485226,113.3361518310074
452,453,美心翠拥华庭二期,22.943249148953395,113.40370647143811
453,454,万科金域华府,23.125356576505517,113.25418073460459
454,455,汇侨新城南区,23.204110059166283,113.26335243385843
455,456,嘉景园,23.19985190633289,113.26445178014117
456,457,吉兴大厦,23.17866439869399,113.25807929068606
457,458,美雅苑,23.399941176310204,113.22711029807034
458,459,怡新花园,23.181033277462916,113.32886899874876
459,460,珠光御景山水城,23.593203496351965,113.6225473478402
460,461,三元里大道,23.17265830444066,113.25970491104826
461,462,越秀岭南雅筑,23.13526012014849,113.27342648099675
462,463,美心翠拥华庭一期,22.942916173077073,113.40611213359303
463,464,周门小区周门西街,23.134658602147965,113.24600768158585
464,465,明珠花园(海珠区),23.107258642323146,113.29084058245468
465,466,富力现代广场,23.097598254625584,113.26240130798477
466,467,合兴苑,23.097814080709817,113.23727848762607
467,468,康乐路,22.653691697153448,113.61228537518924
468,469,西关海,23.13727734567492,113.2351649544229
469,470,云天翠庭,23.187250032844144,113.26319343378323
470,471,金碧世纪花园,23.12051782286747,113.4358903324251
471,472,合益小区,23.182108237102135,113.25556673017546
472,473,周门小区周门西街,23.134658602147965,113.24600768158585
473,474,富力天海湾,22.753730089865286,113.57038930452323
474,475,培英楼,23.38847791712255,113.22159775647962
475,476,恒利翠竹苑,23.143189683440408,113.34747021093774
476,477,雅居乐小院流溪,23.520070599152085,113.57179299671266
477,478,雅宝新城,23.436407538855747,113.19114349292097
478,479,越秀岭南雅筑,23.13526012014849,113.27342648099675
479,480,万科天景花园,23.379524590181703,113.18885523929616
480,481,时代花生Ⅱ,23.19950404344717,113.33819601502525
481,482,广州碧桂园美苑,23.032428019488318,113.29830999276767
482,483,金迪城市花园,23.175347049976477,113.26387183410414
483,484,珠岛花园,23.13668937911409,113.23120181017529
484,485,新都盛世名门宏城汇,23.12907748167652,113.60523807863524
485,486,中海誉城北苑,23.16838317937296,113.53315184623041
486,487,凤安花园,23.10319175179462,113.2592165454613
487,488,西城路(增城区),23.292872362190526,113.8373465986355
488,489,东港花园,23.101382930653298,113.48088510794678
489,490,馨庭花园,23.405727234370897,113.23496463229424
490,491,时代倾城(增城区),23.285011277913476,113.85256844478522
491,492,保税广场,23.071810955202306,113.53884377943142
492,493,富基广场,23.114279986536655,113.2792200125509
493,494,富力广场D区,23.13023478545162,113.24316580227543
494,495,泽德花苑,23.18235772814676,113.24540024740021
495,496,中海誉城北苑,23.16838317937296,113.53315184623041
496,497,鸿运花园,23.128921113201237,113.37406050317705
497,498,敏捷莱茵花园,23.287125719324614,113.84844019198493
498,499,西关海,23.13727734567492,113.2351649544229
499,500,萝岗万达广场,23.179887712853294,113.27331634874126
500,501,合和新城,23.378914068557403,113.26294568112365
501,502,花都雅怡花园,23.400903823504482,113.22949395174028
502,503,实地常春藤,23.217526021921014,113.56494656127062
503,504,怡新花园,23.181033277462916,113.32886899874876
504,505,龙光峰景华庭,23.194532468744534,113.4582146616295
505,506,群星新邨,23.135459600860717,113.60803656978956
506,507,深业江悦湾,23.17496930498683,113.21727987138625
507,508,三角楼,23.112253519886302,113.45791570555588
508,509,西苑小区,23.381954872593894,113.19028552132868
509,510,金凤皇庭,23.275571520532356,113.83938608092231
510,511,泰景花园,23.116150869658913,113.46099716294573
511,512,润南花园,23.0906445943263,113.28866282040755
512,513,万科府前一号,22.798132321417484,113.52609260221314
513,514,银威花园,23.07165609860626,113.31054581211504
514,515,汇侨新城南区,23.204110059166283,113.26335243385843
515,516,大建大厦,23.033006968802482,113.32783289317389
516,517,昌岗东路,23.099010845440414,113.2874784620846
517,518,大沙地东路,23.108168692553118,113.48306250977338
518,519,赤岗二街1号大院,23.095980669759832,113.33426619791203
519,520,深业江悦湾,23.17496930498683,113.21727987138625
520,521,嘉骏豪苑,23.124159264185938,113.63703324282821
521,522,岭南湾畔,23.15669198689411,113.24518285746686
522,523,金影花园,23.09820642287805,113.32798937799369
523,524,荔城碧桂园,23.289530991022993,113.80984198050605
524,525,万科四季花城百合苑,23.16127698250209,113.19374803991575
525,526,南康新村,23.111481465097082,113.55343235073919
526,527,日昌豪苑,23.39027633689526,113.23354468077508
527,528,钟村商贸城,22.98794500687648,113.32152696815703
528,529,润盛花苑,23.11616607592933,113.22658487917772
529,530,新世界凯粤湾,23.120844704991917,113.2201024371282
530,531,花城苑,23.396987687427192,113.22542462778142
531,532,福盛花苑,23.08061512470578,113.25230049134227
532,533,西门口广场,23.13290479603537,113.25939979978529
533,534,可逸家园,23.09831728571663,113.27600021611254
534,535,金马香颂居,23.284380067539892,113.7938917577067
535,536,邦华星际广场二期,23.082167069063573,113.21916775024539
536,537,金碧领秀国际,23.104242329331253,113.46753763553117
537,538,珠江嘉园,22.71724049155721,113.54732764615649
538,539,富力千禧花园,23.102082079594094,113.29145143020126
539,540,康城水郡,22.923365326310652,113.38932945107786
540,541,翡翠绿洲森林半岛,23.141714967627404,113.56704706904391
541,542,保利塞纳维拉,23.08422707432734,113.2107434411756
542,543,越秀岭南雅筑,23.13526012014849,113.27342648099675
543,544,华贵路,23.391832931447052,113.08820729877029
544,545,港航华庭,22.802798104514707,113.58691489200152
545,546,广园云苑新村,23.171937505241406,113.27452816287382
546,547,元邦山清水秀,23.49364497166111,113.22845317497676
547,548,恒盛苑,22.981020471346387,113.32170456315632
548,549,黄埔万科中心,23.10164354335966,113.47555195796635
549,550,豪进山湖珺璟,23.12421410315428,113.59716527651139
550,551,南沙时代,22.804159795072735,113.57940380031289
551,552,时代水岸,23.135336306695006,113.27143134445974
552,553,智烨山水豪庭,23.44558499558265,113.1968296769667
553,554,碧桂园凤凰城凤妍苑,23.13252435438384,113.58282086464115
554,555,锐丰中心,23.179759476771757,113.50792760717965
555,556,泰沙路,23.08799791631075,113.29220652784659
556,557,汇侨新城北区,23.20632668904832,113.26367582384192
557,558,天马丽苑二期,23.37494336951844,113.19123287431918
558,559,广州雅居乐花园雅逸庭,23.013889003907718,113.36950798068455
559,560,海伦春天,23.135955601164085,113.56853124940702
560,561,泰沙路,23.08799791631075,113.29220652784659
561,562,站前路,23.177406880163105,113.72040328207923
562,563,碧桂园城市花园花岸苑,23.279160557125746,113.68621268473618
563,564,东澳广场,23.117534217663575,113.54856730775985
564,565,百事佳花园,23.043219028181607,113.30627203382218
565,566,汇侨新城东区,23.20317179588506,113.2666253201524
566,567,流花路,23.14459115303652,113.25784727005087
567,568,南沙碧桂园,22.801756983727177,113.56431801690549
568,569,海怡花园,23.036338019502168,113.35917297579566
569,570,元邦明月园,23.097348271568297,113.33691718730165
570,571,广州时代云图,22.798089092745638,113.55246361807754
571,572,保利城花园保利城八街,23.38075069079048,113.17103185367853
572,573,华标荔苑,23.45653320886069,113.49649083058316
573,574,锦绣御景国际二期,23.296255128654916,113.81584239181907
574,575,城市家园二期,23.13010151615102,113.62302389891308
575,576,时代花园,23.182563782146726,113.26136933461527
576,577,骏威锦东花园B区,23.41169054323073,113.23616261252194
577,578,顺德碧桂园中北区（洋房）,23.03755507982746,113.29825510630104
578,579,禺雅园,22.94579511402252,113.36506406332815
579,580,城西花园,23.163293645823124,113.21626703192408
580,581,南沙涉外公馆,22.803759759816224,113.5890458523316
581,582,广园云苑新村,23.171937505241406,113.27452816287382
582,583,万科东荟城,23.164761310184613,113.51005973530688
583,584,云峰花园4期,23.385236254527165,113.25102058565207
584,585,机场国际公寓,23.44093239843705,113.32310331466543
585,586,罗马家园,23.06429708534597,113.32595336855599
586,587,宏康花园四期康慧苑,23.113634000158296,113.55359485420588
587,588,逢源大厦,23.125348766175644,113.24521268120978
588,589,光复北路,23.132055453852335,113.25976561583968
589,590,锦林山庄,23.18053811039168,113.46978277049153
590,591,建设北路,23.1208068983817,113.62620749363938
591,592,白云尚城,23.219669858989647,113.29161662858449
592,593,紫泉翠荔嘉园,23.448331500951248,113.49350737832441
593,594,广州碧桂园翠苑,23.034889970953536,113.29332897854704
594,595,解放路(番禺),23.2926706877481,113.84454795997426
595,596,万科四季花城牡丹苑,23.16127698250209,113.19374803991575
596,597,星汇峰,23.447461288712194,113.49950743031522
597,598,红棉苑北区,23.098108025798368,113.23924101567309
598,599,荔港南湾,23.14131012614732,113.23573978011855
599,600,雅居乐富春山居,23.19095333740335,113.4370683702705
600,601,站西路,23.231861253292575,113.83414464793442
601,602,耀华社区存善西街,23.124125363721433,113.25029969548055
602,603,珠岛花园,23.13668937911409,113.23120181017529
603,604,碧桂园豪进广场,23.127009531076503,113.59821530582167
604,605,乐活小镇,23.24377251079623,113.87263937461859
605,606,朗悦君廷,23.35903573219703,113.25701821221801
606,607,叠彩园,23.092174065140423,113.3173661966973
607,608,美心翠拥华庭二期,22.943249148953395,113.40370647143811
608,609,敏捷莱茵花园,23.287125719324614,113.84844019198493
609,610,蓝色快线,23.112674986282258,113.27715804208397
610,611,岭南新世界,23.23844728767068,113.3005949226621
611,612,侨诚花园,23.074898324192294,113.29852298100401
612,613,东方名都,23.131483555495553,113.59901336043646
613,614,人盛巴厘天地,23.498195851359295,113.54234393701933
614,615,永发苑,23.393168035980576,113.20858328591648
615,616,碧桂园凤凰城凤馨苑,23.14601860617728,113.6044769443769
616,617,世纪广场,23.129793766581027,113.25295436792277
617,618,富力新居,23.13952101606552,113.2429181394464
618,619,富力金港城东区,23.463730703893827,113.3689116854872
619,620,国美电器楼上,23.121075835012206,113.25529042577358
620,621,合景科汇金谷,23.173220019330337,113.44200797260714
621,622,龙津西路,23.46729518677622,113.16345948228292
622,623,金碧御水山庄,23.492600648042288,113.20871030631554
623,624,逸泉山庄,23.50856726287856,113.56498231382992
624,625,信步闲庭,23.094635991637798,113.34153160304378
625,626,敏捷锦绣星辰,23.265043447607095,113.84927965848374
626,627,时代玫瑰园,23.230737216982224,113.29313206997932
627,628,时代玫瑰园,23.230737216982224,113.29313206997932
628,629,广信金兰花园,23.18439450095047,113.27977354840596
629,630,锦绣半山御景,23.264728043945265,113.79553871102816
630,631,中海誉城北苑,23.16838317937296,113.53315184623041
631,632,金碧花园第一金碧,23.07561697939704,113.29350998710724
632,633,新都盛世名门,23.13163410502189,113.60548089061452
633,634,保利塞纳维拉,23.08422707432734,113.2107434411756
634,635,石碁城市花园,22.946754996839392,113.40963600644642
635,636,南沙裕兴花园,22.80809953334974,113.55546081441058
636,637,西堤二马路,23.12440792964447,113.6122963569741
637,638,周门小区党恩新街,23.134658602147965,113.24600768158585
638,639,石化生活区,23.11015414525277,113.47738647747822
639,640,中海誉城北苑,23.16838317937296,113.53315184623041
640,641,敏捷莱茵花园,23.287125719324614,113.84844019198493
641,642,叠翠峰,22.80297651016544,113.52734322314372
642,643,万科新里程,23.193568808498505,113.45403852914555
643,644,金碧花园第二金碧,23.071705473192697,113.29507151157473
644,645,富力城南区,23.251672326070825,113.2684768176384
645,646,金碧世纪花园,23.12051782286747,113.4358903324251
646,647,富力金港城东区,23.463730703893827,113.3689116854872
647,648,富域尚品居,23.10230479594469,113.5479039989715
648,649,顺欣花园,23.152484559707073,113.62383381116061
649,650,自在城市花园一二期,22.994191760859295,113.35641104567559
650,651,花都颐和山庄,23.520605491942575,113.277314077751
651,652,丰庭花园,22.796382923455848,113.54405619715133
652,653,打捞局宿舍,23.053698077577607,113.36090248339345
653,654,汇侨新城南区,23.204110059166283,113.26335243385843
654,655,美心花园,22.948059983798625,113.40572101137411
655,656,阳光城丽景湾,22.82518766659142,113.55028127467232
656,657,站西路,23.231861253292575,113.83414464793442
657,658,鹅潭湾,23.124792819067086,113.21657613884996
658,659,嘉鸿花园,23.072643919338347,113.29787404510384
659,660,中海誉城北苑,23.16838317937296,113.53315184623041
660,661,美心翡翠明庭,22.940818455926596,113.40712703915787
661,662,南方花园二期合生帝景国际,23.094931273481997,113.28171730186781
662,663,路劲隽悦豪庭二期三期,23.42561415305298,113.20040367526752
663,664,奥园城市天地,22.99735453331983,113.34173354212236
664,665,碧桂园城市花园花岸苑,23.279160557125746,113.68621268473618
665,666,珠江嘉园,22.71724049155721,113.54732764615649
666,667,城西花园,23.163293645823124,113.21626703192408
667,668,金华花园,23.388212314765493,113.20504764526092
668,669,逸泉山庄,23.50856726287856,113.56498231382992
669,670,南沙时代,22.804159795072735,113.57940380031289
670,671,蝶翠新居,23.095893158056363,113.26834386842297
671,672,荔园小区,23.104542077306732,113.45167356023019
672,673,中海金沙湾C区,23.16183659760823,113.49645400005726
673,674,茂林苑,23.099166372319644,113.23583248524713
674,675,俊怡云山御居,23.38284674988803,113.20113390781633
675,676,大运家园,23.407708152595543,113.24213607466967
676,677,祈福新村康怡居,22.964033040758043,113.33148198981533
677,678,东湖映月,23.28067316005623,113.32822778827597
678,679,东凌广场,23.14259451533562,113.59998424903132
679,680,金港花园,23.10296355215792,113.45190577220447
680,681,规划局宿舍,23.139111100004758,113.24709606854138
681,682,松洲花园,23.149351726082806,113.23619297524817
682,683,合兴苑,23.097814080709817,113.23727848762607
683,684,杏林花园,23.404423934342418,113.2141208902309
684,685,碧桂园城市花园漫绿苑,23.277406012228347,113.68555701154466
685,686,如意坊路,23.124809690945327,113.23627395389664
686,687,环城东路,22.816608713581772,113.42093030909416
687,688,广州时代云图,22.798089092745638,113.55246361807754
688,689,来福花园,23.388233625995408,113.23271060410934
689,690,保利花城花园,23.42435987935736,113.20361242254809
690,691,艺景明苑,23.385020981142873,113.20413703296575
691,692,广州绿地中央广场,23.169771298180045,113.43696919734224
692,693,荔城碧桂园,23.289530991022993,113.80984198050605
693,694,紫景楼,23.071268294506236,113.25978703952778
694,695,彩虹苑,23.447082915737717,113.4978305634203
695,696,锦绣生态园,22.974185747238355,113.31296234376663
696,697,草芳苑,23.115701577593153,113.28103629646091
697,698,广州海伦堡,23.10644899708362,113.56502049181407
698,699,晓港西马路,23.098797884193377,113.28794570311918
699,700,珠光流溪御景,23.52914318338367,113.56969500419478
700,701,广州铁道车辆厂生活区,23.388461995922434,113.21450204125865
701,702,龙津大厦,23.12886004469775,113.25270356102448
702,703,西华路,23.348653445764082,113.29946332721155
703,704,星河盛世,22.81032092091885,113.55125665479473
704,705,凯信东方华庭,23.11066037811454,113.55200009243454
705,706,宏康花园四期康慧苑,23.113634000158296,113.55359485420588
706,707,合景誉山国际,23.19553357508218,113.60127547337095
707,708,华南新城,23.026830049359212,113.35707246802238
708,709,康富花园,22.955616926689,113.37312357053047
709,710,穗花新村,23.101851800467177,113.28316824492704
710,711,金豪雅苑,23.407559991031857,113.21196163327728
711,712,富力新居,23.13952101606552,113.2429181394464
712,713,宏康花园三期建鑫苑,23.113034129106897,113.55218298743631
713,714,紫泉翠荔嘉园,23.448331500951248,113.49350737832441
714,715,亚太新城富丽园,23.133535235049916,113.61601199559617
715,716,盛大蓝庭,23.08504616377622,113.23832483388375
716,717,中海金沙湾B区,23.16183659760823,113.49645400005726
717,718,恩宁路,23.11988932582296,113.245325200263
718,719,悠山时光,22.802748880505064,113.57730446033675
719,720,珠影大院,23.100110774297356,113.32872796478375
720,721,鸿森大厦,23.0975013530043,113.54218466745247
721,722,豪利花园,23.366603597679614,113.25686145790658
722,723,富力泉天下,23.641979543138874,113.65856679369243
723,724,东鹏花园二期,23.088478554946715,113.23495007974499
724,725,新塘新世界花园嘉怡苑,23.11234309822678,113.58094852646732
725,726,悦时代花园心悦湾,23.109543704963116,113.47360973162387
726,727,中怡居,22.98313702133221,113.32207502434849
727,728,御金沙澜山,23.1720128401021,113.21290781847064
728,729,侨诚花园,23.074898324192294,113.29852298100401
729,730,文德路,23.12889681774441,113.27842847514256
730,731,富力金港城北区,23.4658479822845,113.36448250034117
731,732,金源楼,23.217828004484762,113.24154202523613
732,733,托斯卡纳(从化区),23.545714813089038,113.58260527131883
733,734,万科山景城,23.217233006010012,113.53128301144808
734,735,东涌路,23.116547987486904,113.6301256866793
735,736,恒宝华庭,23.123496874128993,113.24792538418792
736,737,御湖名邸,23.260864785836773,113.52167419673322
737,738,万科欧泊,23.016511873394013,113.36258402147702
738,739,珠岛花园,23.13668937911409,113.23120181017529
739,740,万科欧泊,23.016511873394013,113.36258402147702
740,741,碧桂园凤凰城凤馨苑,23.14601860617728,113.6044769443769
741,742,西华路,23.348653445764082,113.29946332721155
742,743,御鹿华轩,23.165431218924237,113.28549270026389
743,744,太阳城巧克力,23.1273387236509,113.61449008640166
744,745,大城云山,23.4653147708202,113.49918448948449
745,746,新塘新世界花园万象苑,23.113635745173326,113.57919027309322
746,747,富丽花园,23.300159916553266,113.82927349647763
747,748,大运家园,23.407708152595543,113.24213607466967
748,749,广州雅居乐花园时光九篇,23.01637150490598,113.38148939991156
749,750,菜园路,23.304623310092214,113.83346210822171
750,751,隆庆小区,23.132391004300043,113.25558002509702
751,752,江南大道中,23.1128690996927,113.27856874105638
752,753,广州雅居乐花园一尺山居,23.013930998832038,113.36600997902984
753,754,西华路,23.348653445764082,113.29946332721155
754,755,潭村医药公司宿舍,23.195826971297365,113.23569199026544
755,756,万科东荟城,23.164761310184613,113.51005973530688
756,757,康和楼,23.135336306695006,113.27143134445974
757,758,葛洲坝保利曼城,23.077489404570812,113.25225494725292
758,759,雅居乐小院流溪,23.520070599152085,113.57179299671266
759,760,广州雅居乐花园雅翠庭,23.018093004438075,113.36465003431873
760,761,锐丰中心,23.179759476771757,113.50792760717965
761,762,滨江绿园,23.031901949188097,113.33090949971401
762,763,祈福新村湖景居,22.961811035125336,113.33694503477244
763,764,荷景花园雅荷居,22.91367621422091,113.35692227134115
764,765,如意花园,23.04659812660723,113.30831855343435
765,766,富域尚品居,23.10230479594469,113.5479039989715
766,767,新鸿基御华园,23.452713555998773,113.19779257064253
767,768,保利亚奥北苑,22.97259611033262,113.4968430561735
768,769,西苑小区,23.381954872593894,113.19028552132868
769,770,亚运城媒体北村,22.952192011869396,113.49953500829436
770,771,景泰新村,23.167657883167358,113.27455592051408
771,772,富力桃园,23.15482898595702,113.23964210908316
772,773,新市花园一区,23.196560085288663,113.26580579603592
773,774,逸泉山庄,23.50856726287856,113.56498231382992
774,775,顺欣花园,23.152484559707073,113.62383381116061
775,776,天马丽苑二期,23.37494336951844,113.19123287431918
776,777,学府南苑,23.428767275999654,113.18503169172475
777,778,雅居乐锦城花锦集,23.42181150301616,113.19481540652235
778,779,芙蓉春晓,23.428479930137353,113.21909313968467
779,780,华贵苑,23.388692023906835,113.2295979755183
780,781,越秀滨海悦城,23.13526012014849,113.27342648099675
781,782,华南碧桂园翠云山,23.007770742667226,113.3841137994581
782,783,中海誉城南苑,23.164355043977228,113.53881799806328
783,784,明珠东苑,23.106592179086,113.29634009861549
784,785,宝峰春天,23.46721638818273,113.18383335217483
785,786,宏康花园五期宏康东筑,23.11258964609287,113.5546262885921
786,787,升平楼,23.212988478474223,113.24528176090348
787,788,紫薇花园,23.40963904640948,113.2396094107626
788,789,锦绣银苑,23.11259787265685,113.61016779961128
789,790,保利天悦花园,23.108380902345964,113.38674322951547
790,791,时代春树里,23.166089246254554,113.51721563699702
791,792,番禺华景新城,22.932276983015317,113.37231572438559
792,793,金碧新城,23.209516797103795,113.24826593180664
793,794,碧桂园凤凰城凤盈苑,23.134504815823316,113.56930711587572
794,795,海伦春天,23.135955601164085,113.56853124940702
795,796,宏康花园五期宏康东筑,23.11258964609287,113.5546262885921
796,797,怡福花园,23.111638518905302,113.22429276283923
797,798,今日丽舍,23.02060627733808,113.32058015414982
798,799,锦绣御景国际二期,23.296255128654916,113.81584239181907
799,800,恒宝华庭,23.123496874128993,113.24792538418792
800,801,碧桂园凤凰城凤锦苑,23.15670494565311,113.58752618890087
801,802,广州星河湾星座,23.271153746534505,113.85528563929091
802,803,皇冠国际公寓,23.068062427340916,113.52286570916125
803,804,恒大御景半岛,23.18248704139586,113.2166799829669
804,805,市政东苑,23.13862159177127,113.24311244292814
805,806,南翠苑,23.10122353780851,113.28912957995038
806,807,环城北路,22.81529346104303,113.41965610405073
807,808,北城白云花园,23.195961420123773,113.26838626844302
808,809,周门小区周门街,23.134658602147965,113.24600768158585
809,810,东港花园,23.101382930653298,113.48088510794678
810,811,富力广场B区,23.131016036644045,113.2454924135455
811,812,锦绣半岛,23.047516880028358,113.26405041723945
812,813,华西路,23.35107035318722,113.30359169589326
813,814,怡港花园,23.105254422705386,113.46075156621939
814,815,黄埔花园,23.104960992043384,113.4644519561054
815,816,锦绣香江花园山水园,23.00096799312494,113.34463426044367
816,817,益庭阁,23.114088783538214,113.43697773124457
817,818,怡新花园,23.181033277462916,113.32886899874876
818,819,碧桂园城市花园漫绿苑,23.277406012228347,113.68555701154466
819,820,广园云苑新村,23.171937505241406,113.27452816287382
820,821,南康阁,23.100491973721148,113.27314001136972
821,822,金湖花园,23.211180824147398,113.351740306178
822,823,碧桂园豪园星湖苑,23.231070053608008,113.82088898234191
823,824,翠馨华庭,23.090161722363813,113.32185925136507
824,825,东港花园,23.101382930653298,113.48088510794678
825,826,新景豪庭,23.12808301823635,113.59140839582206
826,827,锦绣天伦花园,23.132460628846506,113.64539835356491
827,828,人盛巴厘天地,23.498195851359295,113.54234393701933
828,829,南沙万达广场,22.800845871503,113.53886812351071
829,830,叠翠峰,22.80297651016544,113.52734322314372
830,831,富力城北区,23.256879395698963,113.2697666046892
831,832,君合雅居,23.071440895017975,113.54158702479687
832,833,锦尚名苑,23.409584243212205,113.24252971214402
833,834,金马香颂居,23.284380067539892,113.7938917577067
834,835,竹丝岗大马路,23.271371862508246,113.31729684751194
835,836,芷兰苑,23.403048071881187,113.21435885136042
836,837,珠光山水御苑,23.598914498686014,113.62740520437545
837,838,泰景花园,23.116150869658913,113.46099716294573
838,839,花城湾畔,23.117592964763826,113.28361640954583
839,840,人盛巴厘天地,23.498195851359295,113.54234393701933
840,841,广花五路新市新街,23.197072548488283,113.26426601056177
841,842,紫泉流溪湾,23.451743830743958,113.47908481387482
842,843,西华路,23.348653445764082,113.29946332721155
843,844,荔港南湾,23.14131012614732,113.23573978011855
844,845,西华路,23.348653445764082,113.29946332721155
845,846,万科新里程,23.193568808498505,113.45403852914555
846,847,水电广场,23.126740243963734,113.60924452120842
847,848,文安花苑,23.116648022394898,113.21924536384144
848,849,敏捷海大大厦,23.01682512410196,113.35768645983823
849,850,金碧世纪花园,23.12051782286747,113.4358903324251
850,851,彩虹花园彩虹楼,23.05116539337949,113.3067699645662
851,852,中铁荔湾国际城,23.08383951152283,113.2238263626186
852,853,中国铁建国际花园,23.279780007721996,113.68394572095195
853,854,金马香颂居,23.284380067539892,113.7938917577067
854,855,广信春兰花园,23.190087232520803,113.33328506863435
855,856,玫瑰园,23.068334327174426,113.39941688296827
856,857,中意花苑,23.179269371275943,113.26532834665751
857,858,西关海,23.13727734567492,113.2351649544229
858,859,芳园居教师新村,23.077596710599234,113.22821197994742
859,860,紫泉翠荔嘉园,23.448331500951248,113.49350737832441
860,861,云景花园云景名都,23.1887726590017,113.33561949516238
861,862,锦绣银苑,23.11259787265685,113.61016779961128
862,863,南沙碧桂园,22.801756983727177,113.56431801690549
863,864,飞鹅新村,23.156560405577125,113.27339728606768
864,865,商业大道,23.368589591389362,113.37498735503921
865,866,路劲隽悦豪庭二期三期,23.42561415305298,113.20040367526752
866,867,海怡花园,23.036338019502168,113.35917297579566
867,868,雅居乐小院流溪,23.520070599152085,113.57179299671266
868,869,南华时代城,23.37340672314545,113.20077135171263
869,870,富好城,23.164055680388334,113.66978680916947
870,871,金碧世纪花园,23.12051782286747,113.4358903324251
871,872,创鸿嘉园,22.804178035252875,113.54920025382197
872,873,保利花城花园,23.42435987935736,113.20361242254809
873,874,天虹花园,23.11532623848338,113.43760986883173
874,875,和平家园,23.09270355397656,113.32124723582133
875,876,南沙奥园,22.758162205586228,113.60045388315179
876,877,鑫润花园,22.95381808154444,113.39339778690066
877,878,芳雅苑,23.113895502869568,113.2252079564925
878,879,南洲花苑C区,23.077378441235787,113.31085114615779
879,880,名汇商业大厦,23.12086581021579,113.25395615822717
880,881,碧桂园城市花园花岸苑,23.279160557125746,113.68621268473618
881,882,广钢鹤平小区,23.078343445117326,113.24405566371331
882,883,尚东阳光雅苑,23.108518847017972,113.58039328383178
883,884,万科里享水韵,23.198136831294228,113.5727201378292
884,885,海逸花园,23.108209717794626,113.27759902025866
885,886,深业江悦湾,23.17496930498683,113.21727987138625
886,887,金碧花园第二金碧,23.071705473192697,113.29507151157473
887,888,金盛大厦,23.09644897689878,113.28172062559818
888,889,紫来居,23.176871391218143,113.27750927953825
889,890,保利花园,23.077387584285614,113.28025351303977
890,891,南康新村,23.111481465097082,113.55343235073919
891,892,亚运城运动员村三区,22.951811636002628,113.48818294190741
892,893,友田碧云轩,23.44787845089862,113.1964819429039
893,894,万科柏悦湾,23.124239029950587,113.23014693001527
894,895,萝岗敏捷广场,23.008297573490914,113.3532574543533
895,896,康平大厦,23.13703840408909,113.33957329703267
896,897,富力悦禧花园,23.11745669139388,113.52516779669092
897,898,金兰苑,23.088370260362026,113.23133898142662
898,899,汇景大道,22.92824676396915,113.38138476259088
899,900,保利高尔夫郡,23.382667213942643,113.16157127554227
900,901,信达大厦,23.109941912451074,113.46091514765271
901,902,侨宫苑,22.936284605401056,113.35989961512243
902,903,南沙万达广场,22.800845871503,113.53886812351071
903,904,雅居乐滨江花园,23.540453951982574,113.59967882515804
904,905,丽景台,23.129804567738937,113.31888909402785
905,906,潭洲博爱商场,22.784675540848205,113.39636417135472
906,907,电力新村,22.93976642325257,113.38711108562171
907,908,白云明珠广场,23.18711790055589,113.26587963674882
908,909,金碧花园第二金碧,23.071705473192697,113.29507151157473
909,910,南泰路,23.342566632336773,113.20616716119727
910,911,石岗路,23.073411122653027,113.28118268522508
911,912,光复中路,23.12463606117029,113.25810777505546
912,913,东怡新地,22.940501865185837,113.39553099299448
913,914,金泽华庭,23.121443294369435,113.62500879476727
914,915,华侨城(番禺),22.93856211691919,113.35947184203873
915,916,华标荔苑,23.45653320886069,113.49649083058316
916,917,蓬莱路,23.11892824360804,113.2431720940072
917,918,纺织路,23.301878642694557,113.85060590056872
918,919,南沙万达广场,22.800845871503,113.53886812351071
919,920,东湖映月,23.28067316005623,113.32822778827597
920,921,锐丰中心,23.179759476771757,113.50792760717965
921,922,富力桃园,23.15482898595702,113.23964210908316
922,923,中海誉城北苑,23.16838317937296,113.53315184623041
923,924,荟翠苑,23.092304879247873,113.29780370778242
924,925,时代南湾,22.787738217027965,113.60084311892913
925,926,朗陶居,22.923658990391548,113.37074898974616
926,927,金港花园,23.10296355215792,113.45190577220447
927,928,名城御景绿洲,23.537215813398713,113.60847116999514
928,929,紫茗花园,22.80846882324933,113.5584861277061
929,930,创鸿嘉园,22.804178035252875,113.54920025382197
930,931,敏捷莱茵花园,23.287125719324614,113.84844019198493
931,932,同德苑,23.18658903788191,113.24775497563273
932,933,恒荔湾畔,23.107223740341382,113.23865523065021
933,934,恒大山水城,23.30161668301231,113.6235830042623
934,935,丽江花园丽彦楼,23.040430982947715,113.30973904393679
935,936,华南苑,23.376127376888906,113.21847138381429
936,937,和平新村,23.144241107329456,113.24389855007966
937,938,锦翠苑(金钟横路),23.17481132951967,113.27706012678341
938,939,豪利花园,23.366603597679614,113.25686145790658
939,940,增城雅居乐御宾府,23.302455420018042,113.81125618286994
940,941,翡翠绿洲育才阳光苑,23.1386331399327,113.56455445091564
941,942,广园中路,23.166069686310582,113.28656994463789
942,943,汇东国际花园,23.124520203888462,113.59031147496418
943,944,黄埔花园,23.104960992043384,113.4644519561054
944,945,万华花园,23.07641426154223,113.30697953924161
945,946,晓港湾,23.075949541056513,113.3004741904016
946,947,沙园中路,23.303911240844283,113.83801369108666
947,948,骊雅居,23.39531257689597,113.24182238638569
948,949,上步花园,23.175973466401732,113.24314891413184
949,950,荔港南湾,23.14131012614732,113.23573978011855
950,951,狮峰花园,23.45620384424699,113.18562915471924
951,952,雅居乐小院流溪,23.520070599152085,113.57179299671266
952,953,汇东国际花园,23.124520203888462,113.59031147496418
953,954,云山雅苑,23.175865658535564,113.27522156489674
954,955,富丽家园香江商业大厦,23.03144638576271,113.31709868131652
955,956,时代春树里,23.166089246254554,113.51721563699702
956,957,恒大御景半岛,23.18248704139586,113.2166799829669
957,958,泊雅湾,23.109511795129407,113.32957291094614
958,959,晓港湾,23.075949541056513,113.3004741904016
959,960,中铁荔湾国际城,23.08383951152283,113.2238263626186
960,961,中海锦汇华庭（A区）,23.151068845753294,113.33665676853438
961,962,嘉汇城西区,23.34019885378686,113.23203948006307
962,963,亚运城天誉,22.956585807170832,113.49319755275411
963,964,花都颐和山庄,23.520605491942575,113.277314077751
964,965,新光城市广场,23.13057610048109,113.25445858049872
965,966,鸿基花园,22.961216636118436,113.36456505461753
966,967,新塘新世界花园嘉华苑,23.113700892384827,113.58300780201772
967,968,新华路,23.382707119372878,113.2254817528254
968,969,雅居乐锦城花漾集,23.423282587090668,113.19735042467066
969,970,华标荔苑,23.45653320886069,113.49649083058316
970,971,碧桂园凤凰城凤晴苑,23.164391509140618,113.58792323993613
971,972,好美嘉园好美华庭,23.343216001916982,113.11913496394271
972,973,万科金域华府,23.125356576505517,113.25418073460459
973,974,祈福生活无限,23.392153921155508,113.24298730897064
974,975,小康人家,23.0194474369058,113.34284753078491
975,976,京仕广场,23.38180635017866,113.26489419560468
976,977,富力天海湾,22.753730089865286,113.57038930452323
977,978,紫泉流溪湾,23.451743830743958,113.47908481387482
978,979,碧桂园凤凰城凤凰名苑,23.165732739048615,113.59028919698754
979,980,美力百富雅苑二期,23.393319530628137,113.23544549523356
980,981,隆庆小区,23.132391004300043,113.25558002509702
981,982,万科东荟城,23.164761310184613,113.51005973530688
982,983,康乃馨苑,23.087089585015484,113.23868900693738
983,984,鸿基花园,22.961216636118436,113.36456505461753
984,985,万科尚城,23.09934197309004,113.5375820195125
985,986,上城湾畔东区,23.53530097081433,113.59624711844995
986,987,金雅苑,23.109169927315136,113.30002153425527
987,988,珠江嘉园,22.71724049155721,113.54732764615649
988,989,昊龙花园南区,22.920230261935295,113.36610205534458
989,990,美福花园,22.80302898237071,113.56962601433165
990,991,时代南湾,22.787738217027965,113.60084311892913
991,992,丰庭花园,22.796382923455848,113.54405619715133
992,993,合景天峻广场,23.067488202325936,113.39871297077089
993,994,中海金沙湾A区,23.16183659760823,113.49645400005726
994,995,南康新村,23.111481465097082,113.55343235073919
995,996,花城路,23.38729026947369,113.2195094548816
996,997,港湾路,23.54402675277461,113.60111709941467
997,998,黄埔万科中心,23.10164354335966,113.47555195796635
998,999,雅宝新城名门世家,23.434263837319946,113.19174266269593
999,1000,逸翠湾,23.116133087460693,113.24716460925177
1000,1001,飞鹅西路,23.16007702417828,113.27288069392502
1001,1002,中铁港航局集团二公司丽雅生活区,23.38617695194504,113.21485633295167
1002,1003,保利西海岸汇海花园,23.179794193547032,113.21551901292618
1003,1004,锦绣香江花园山水园,23.00096799312494,113.34463426044367
1004,1005,凤阳小区凤阳街,23.088085436040714,113.28835110839569
1005,1006,越秀岭南雅筑,23.13526012014849,113.27342648099675
1006,1007,远景新苑,23.176836009225266,113.25441797708969
1007,1008,越秀滨海隽城,23.13526012014849,113.27342648099675
1008,1009,锦绣御景国际二期,23.296255128654916,113.81584239181907
1009,1010,白云雅苑,23.18204461847152,113.2404866060928
1010,1011,南源花园,23.13965136811024,113.2413313725941
1011,1012,康隆苑,23.099564444721775,113.27112556126426
1012,1013,金碧新城,23.209516797103795,113.24826593180664
1013,1014,泰景花园东城华庭,23.117223032094845,113.46045000505978
1014,1015,花都雅景苑,23.40519311425437,113.22368622695909
1015,1016,岭南花园,23.16752481762813,113.23877057307764
1016,1017,今日丽舍,23.02060627733808,113.32058015414982
1017,1018,华南计算机宿舍,23.188043986491436,113.33574471895041
1018,1019,怡景城,23.298525059519935,113.8295212491372
1019,1020,万盛苑,23.112273629314938,113.22935597201399
1020,1021,芳村大道西,23.107633090150294,113.23479431356961
1021,1022,大运家园,23.407708152595543,113.24213607466967
1022,1023,溢盈湖畔别墅,23.43771996983689,113.20082758563754
1023,1024,景新国际名城,23.28573908311984,113.63480715194467
1024,1025,时代玫瑰园,23.230737216982224,113.29313206997932
1025,1026,雅居乐小院流溪,23.520070599152085,113.57179299671266
1026,1027,康乃馨苑,23.087089585015484,113.23868900693738
1027,1028,花地河湾,23.064289105171603,113.23407701662012
1028,1029,南沙万达广场,22.800845871503,113.53886812351071
1029,1030,新市花园一期,23.196560085288663,113.26580579603592
1030,1031,雅居乐锦城花漾集,23.423282587090668,113.19735042467066
1031,1032,汇美体育花园,23.139227328866593,113.62418909098969
1032,1033,金德苑,23.164423405767323,113.23869951711184
1033,1034,荷景花园二区,22.911872810800574,113.3536839698093
1034,1035,中海金沙湾A区,23.16183659760823,113.49645400005726
1035,1036,新市大马路15号大院,23.20012984720711,113.26761749858784
1036,1037,东涌路,23.116547987486904,113.6301256866793
1037,1038,司法大厦,23.1277284859379,113.24424340956483
1038,1039,合益小区,23.182108237102135,113.25556673017546
1039,1040,碧桂园凤凰城凤馨苑,23.14601860617728,113.6044769443769
1040,1041,景泰新村,23.167657883167358,113.27455592051408
1041,1042,盛恒家园,22.945378111558064,113.44695242579353
1042,1043,兴云路,23.172405726486904,113.27147073605465
1043,1044,和平西路,23.11735812743718,113.24965319039507
1044,1045,萝岗奥园广场,22.930078248099555,113.36428154939867
1045,1046,锦绣御景苑三期,23.309357786763606,113.82755934990405
1046,1047,南沙保利城,22.836824080936132,113.50456722592904
1047,1048,美力盈彩花苑,23.41521799126952,113.21856399911233
1048,1049,保利花园,23.077387584285614,113.28025351303977
1049,1050,沥滘公安宿舍,23.077694125447007,113.30855301117236
1050,1051,泰景花园,23.116150869658913,113.46099716294573
1051,1052,南沙境界家园,22.818877068287442,113.53263639852895
1052,1053,龙光峰景华庭,23.194532468744534,113.4582146616295
1053,1054,永发苑,23.393168035980576,113.20858328591648
1054,1055,大岗兴业花园,22.80400054736777,113.40807951248978
1055,1056,华乐苑,23.10237186008604,113.32053209480506
1056,1057,翡翠绿洲森林半岛,23.141714967627404,113.56704706904391
1057,1058,广州海伦堡,23.10644899708362,113.56502049181407
1058,1059,新拓花园,23.39382127765928,113.23086773035624
1059,1060,金沙湾花园,22.917686640107178,113.35847948394218
1060,1061,丰庭花园,22.796382923455848,113.54405619715133
1061,1062,水电二局宿舍,23.140804010249095,113.34098902651594
1062,1063,合景天湖峰境,23.45448299594102,113.44977651865486
1063,1064,利泰花林湖畔,23.609948329245434,113.53178399643082
1064,1065,豪利花园,23.366603597679614,113.25686145790658
1065,1066,万科四季花城海棠苑,23.16127698250209,113.19374803991575
1066,1067,中山七路,23.131692645311585,113.25403976531756
1067,1068,中海誉城南苑,23.164355043977228,113.53881799806328
1068,1069,紫薇花园,23.40963904640948,113.2396094107626
1069,1070,丽江花园华林居,23.037262497478558,113.30616369817771
1070,1071,富力君湖华庭,23.146111235511288,113.25599872529507
1071,1072,中国铁建国际花园,23.279780007721996,113.68394572095195
1072,1073,港丰大厦,23.137141591015915,113.25499684516012
1073,1074,顺欣花园,23.152484559707073,113.62383381116061
1074,1075,时代水岸,23.135336306695006,113.27143134445974
1075,1076,长乐花苑二期,23.148139178631624,113.25140299430754
1076,1077,阳光家园(增城),23.31254117036529,113.83260180822154
1077,1078,路劲隽悦豪庭二期三期,23.42561415305298,113.20040367526752
1078,1079,南沙保利城,22.836824080936132,113.50456722592904
1079,1080,锦林山庄,23.18053811039168,113.46978277049153
1080,1081,万科府前一号,22.798132321417484,113.52609260221314
1081,1082,今日丽舍,23.02060627733808,113.32058015414982
1082,1083,中铁荔湾国际城,23.08383951152283,113.2238263626186
1083,1084,滨江东路远安新街,23.113255996122835,113.29017799231073
1084,1085,京仕广场,23.38180635017866,113.26489419560468
1085,1086,碧桂园豪园星湖苑,23.231070053608008,113.82088898234191
1086,1087,保利越秀岭南林语,23.13526012014849,113.27342648099675
1087,1088,枫溪苑,23.186946734648693,113.26424921224874
1088,1089,云山诗意,23.225537334807026,113.29704311250738
1089,1090,新康花园,23.12176643512491,113.59430022091883
1090,1091,今日丽舍,23.02060627733808,113.32058015414982
1091,1092,学府南苑,23.428767275999654,113.18503169172475
1092,1093,万科峯境,23.178514400945446,113.28041161480947
1093,1094,岗前小区,23.290129480587172,113.83100767526406
1094,1095,敏捷花城里,23.126947132290955,113.28274352608206
1095,1096,顺欣花园,23.152484559707073,113.62383381116061
1096,1097,合兴苑,23.097814080709817,113.23727848762607
1097,1098,新怡苑,23.09134845394544,113.32726453527792
1098,1099,萝岗万达广场,23.179887712853294,113.27331634874126
1099,1100,富力银禧花园,23.10769134303513,113.29949180349622
1100,1101,流花路39号大院,23.144444396052364,113.2548552722118
1101,1102,碧桂园城市花园漫绿苑,23.277406012228347,113.68555701154466
1102,1103,越秀星汇海珠湾,23.13609310175718,113.264940548169
1103,1104,恒展江山时代花园,23.28344146224229,113.68539136400868
1104,1105,加怡大厦,23.099829465540406,113.24788469094833
1105,1106,敏捷莱茵花园,23.287125719324614,113.84844019198493
1106,1107,普晖村,23.06017800483135,113.53267403752982
1107,1108,芳村花园,23.083187974593667,113.23020999106205
1108,1109,文昌南路,23.12136977180246,113.25095567589257
1109,1110,明珠花园(南沙区),22.803397453280894,113.56770525749084
1110,1111,金碧花园第一金碧,23.07561697939704,113.29350998710724
1111,1112,绿茵翠庭,23.093364269310317,113.33251818522075
1112,1113,西湾路,23.157439165601055,113.24784213821633
1113,1114,雅居乐锦城花语集,23.42079702981817,113.19755101629097
1114,1115,素社新村,23.109940499780542,113.28661459401494
1115,1116,富雅都市华庭,23.138898830447953,113.63085335007435
1116,1117,崇和花园,23.17486398802967,113.60370898299668
1117,1118,心谊交警宿舍,23.175989994718595,113.26192700267568
1118,1119,金碧花园第一金碧,23.07561697939704,113.29350998710724
1119,1120,金融街融穗御府,23.219333340315075,113.51266967213472
1120,1121,碧桂园凤凰城凤锦苑,23.15670494565311,113.58752618890087
1121,1122,时代水岸,23.135336306695006,113.27143134445974
1122,1123,龙光峰景华庭,23.194532468744534,113.4582146616295
1123,1124,南珠广场,23.086575366579442,113.28558055454273
1124,1125,海关大院,23.158431356676605,113.26293921332397
1125,1126,天马丽苑二期,23.37494336951844,113.19123287431918
1126,1127,广州海伦堡,23.10644899708362,113.56502049181407
1127,1128,现代城市花园,23.13301247270557,113.61124891029218
1128,1129,侨诚花园,23.074898324192294,113.29852298100401
1129,1130,金碧花园第一金碧,23.07561697939704,113.29350998710724
1130,1131,维雅苑,23.13587924880941,113.25016000897381
1131,1132,富力天海湾,22.753730089865286,113.57038930452323
1132,1133,广州市信息工程学校,23.212742366588383,113.26922735189174
1133,1134,黄埔花园,23.104960992043384,113.4644519561054
1134,1135,芳华花园洛涛居北区,23.053069836725225,113.31040325103066
1135,1136,广园云苑新村,23.171937505241406,113.27452816287382
1136,1137,招商城市主场,23.017166397728225,113.35880601799495
1137,1138,南沙时代,22.804159795072735,113.57940380031289
1138,1139,金碧花园第三金碧,23.071705473192697,113.29507151157473
1139,1140,锦绣半岛西区,23.04768099294828,113.26397271381288
1140,1141,祈福新村青怡居,22.970583874068613,113.33181571031217
1141,1142,雅居乐富春山居,23.19095333740335,113.4370683702705
1142,1143,豪进山湖珺璟,23.12421410315428,113.59716527651139
1143,1144,阳光假日园,23.134747999194737,113.3981030213298
1144,1145,多宝华厦,23.12213411167933,113.24617018505255
1145,1146,恒大御景湾,23.055467560983427,113.34619300016406
1146,1147,金碧世纪花园,23.12051782286747,113.4358903324251
1147,1148,富力金港城南区,23.462304994070827,113.36406191370155
1148,1149,广园中路,23.166069686310582,113.28656994463789
1149,1150,丰乐小区111号大院,23.109811281912638,113.4604135338561
1150,1151,金道花园,23.07800074901985,113.24158262864516
1151,1152,丰逸尚居,23.10443254929212,113.4747323440193
1152,1153,嘉德苑,23.16986058847382,113.23879788156515
1153,1154,金花小区,23.134327849167413,113.25632849324768
1154,1155,华进明苑,23.048383250964644,113.31172897030184
1155,1156,大金钟公安宿舍,23.170115252366863,113.2853972103882
1156,1157,碧桂园凤凰城凤仪苑,23.138592015180585,113.57806676239228
1157,1158,大北路,22.957050188531518,113.37633035770841
1158,1159,尚东阳光雅苑,23.108518847017972,113.58039328383178
1159,1160,双子星城,23.095396592455398,113.3055309317767
1160,1161,景新国际名城,23.28573908311984,113.63480715194467
1161,1162,南湖半山东苑,23.22870970989242,113.3506186819186
1162,1163,华南碧桂园翠山蓝天苑,23.008541736210468,113.36112059197119
1163,1164,天马河壹号二期帝景湾,23.387499008486127,113.19069802321873
1164,1165,花城湾畔,23.117592964763826,113.28361640954583
1165,1166,珠江新岸公寓,23.109535644406886,113.32125738667358
1166,1167,白天鹅花园,23.192195721691004,113.34462842145786
1167,1168,泽德花苑,23.18235772814676,113.24540024740021
1168,1169,碧桂园凤凰城凤仪苑,23.138592015180585,113.57806676239228
1169,1170,海德花园,23.198898831260063,113.26780452579496
1170,1171,祈福新村月明轩,22.962259016395357,113.32704588771688
1171,1172,珠江嘉园,22.71724049155721,113.54732764615649
1172,1173,汇雅花园,23.284055830374527,113.33589725122596
1173,1174,荔港南湾,23.14131012614732,113.23573978011855
1174,1175,万科金色梦想,23.170079951628168,113.535925274661
1175,1176,金域蓝湾,23.162547638475665,113.21859624828012
1176,1177,敏捷莱茵花园,23.287125719324614,113.84844019198493
1177,1178,珠江壹城,23.478413971769843,113.53190117589303
1178,1179,万科城,23.190219112698387,113.45698649833666
1179,1180,翡翠绿洲森林半岛,23.141714967627404,113.56704706904391
1180,1181,富国路,23.300509879531457,113.83799185866957
1181,1182,东湖映月,23.28067316005623,113.32822778827597
1182,1183,万科四季花城天竹轩,23.16127698250209,113.19374803991575
1183,1184,锦绣御景国际四期,23.295390876723815,113.8186298338156
1184,1185,锦绣银苑,23.11259787265685,113.61016779961128
1185,1186,金沙湾花园,22.917686640107178,113.35847948394218
1186,1187,番禺华景新城,22.932276983015317,113.37231572438559
1187,1188,雅居乐君域公馆,22.949519457481955,113.37414224897843
1188,1189,南沙保利城,22.836824080936132,113.50456722592904
1189,1190,恒大山水城,23.30161668301231,113.6235830042623
1190,1191,云天翠庭,23.187250032844144,113.26319343378323
1191,1192,华南碧桂园翠云山,23.007770742667226,113.3841137994581
1192,1193,银威花园,23.07165609860626,113.31054581211504
1193,1194,惠百氏广场,23.128698690775014,113.60050562554913
1194,1195,广州雅居乐花园剑桥郡,23.016769409270093,113.36801320031643
1195,1196,时代春树里,23.166089246254554,113.51721563699702
1196,1197,荔尚国际,23.122515164768682,113.25050594642558
1197,1198,保利塞纳维拉,23.08422707432734,113.2107434411756
1198,1199,时代倾城(增城区),23.285011277913476,113.85256844478522
1199,1200,碧桂园凤凰城凤凰岛,23.13717798058931,113.58275196460856
1200,1201,晓港湾,23.075949541056513,113.3004741904016
1201,1202,中森茗苑,23.134174228625294,113.63238253554348
1202,1203,南沙万达广场,22.800845871503,113.53886812351071
1203,1204,珠江壹城,23.478413971769843,113.53190117589303
1204,1205,上九路,23.121945085841713,113.25859771716858
1205,1206,华侨城(番禺),22.93856211691919,113.35947184203873
1206,1207,大墩二街,23.161596018225925,113.30192816524193
1207,1208,穗发花园,23.095896980980985,113.30394703950202
1208,1209,富丽家园金山大厦,23.031958406018084,113.32202247347618
1209,1210,人盛巴厘天地,23.498195851359295,113.54234393701933
1210,1211,飞晟文汇,23.176610760260015,113.51027730490134
1211,1212,群星新邨,23.135459600860717,113.60803656978956
1212,1213,新光百德广场,23.454209819650128,113.49840251453831
1213,1214,广州海伦堡,23.10644899708362,113.56502049181407
1214,1215,富丽家园朝阳西路,23.033536111142578,113.32428548471616
1215,1216,机安宿舍,23.184398985736095,113.25833396029805
1216,1217,金碧世纪花园,23.12051782286747,113.4358903324251
1217,1218,珠光南沙御景,22.803901933631828,113.55140819893421
1218,1219,敦和商务公寓,23.093955004212475,113.32509000713064
1219,1220,金名都,23.16443736053909,113.26591386218874
1220,1221,惠百氏广场,23.128698690775014,113.60050562554913
1221,1222,聚芳园,23.157888008552316,113.28730098925489
1222,1223,富力桃园,23.15482898595702,113.23964210908316
1223,1224,西苑小区,23.381954872593894,113.19028552132868
1224,1225,广园云苑新村,23.171937505241406,113.27452816287382
1225,1226,豪利花园,23.366603597679614,113.25686145790658
1226,1227,新锦龙大厦,23.129694395886997,113.25548309793253
1227,1228,新福港鼎峰,23.184890068842357,113.49357412242377
1228,1229,汇港威华国际,23.283318223118634,113.74686771003867
1229,1230,江燕花园,23.08740233723044,113.28443710145946
1230,1231,逸涛雅苑,22.810240467884324,113.5437043308832
1231,1232,路劲隽悦豪庭二期三期,23.42561415305298,113.20040367526752
1232,1233,万科柏悦湾,23.124239029950587,113.23014693001527
1233,1234,富力金港城南区,23.462304994070827,113.36406191370155
1234,1235,碧桂园凤凰城凤妍苑,23.13252435438384,113.58282086464115
1235,1236,碧桂园豪园翠湖苑,23.230738545341595,113.82297727316026
1236,1237,宝铼雅居,23.402281449702524,113.17074773581531
1237,1238,南沙碧桂园,22.801756983727177,113.56431801690549
1238,1239,又一居花园,23.176504863213534,113.26482565489431
1239,1240,保利东江首府,23.11516902284898,113.63808902129374
1240,1241,佳星楼,23.153882066041675,113.23438756083482
1241,1242,大江苑夏沙巷,23.10574488508282,113.31718770339253
1242,1243,佳景楼,23.14912260896447,113.23575424283725
1243,1244,顺欣广场,23.152180018832283,113.63033448881197
1244,1245,锦绣半岛,23.047516880028358,113.26405041723945
1245,1246,宝盛新家园,23.126158046846836,113.24634912751009
1246,1247,力诚凯怡湾,23.12074283484836,113.61352144357058
1247,1248,碧桂园凤凰城凤馨苑,23.14601860617728,113.6044769443769
1248,1249,晴海岸,22.74891296207671,113.59625134048584
1249,1250,锦绣香江花园山水园,23.00096799312494,113.34463426044367
1250,1251,岭南新世界,23.23844728767068,113.3005949226621
1251,1252,新月明珠花园,23.02185848889568,113.32605038555104
1252,1253,江南西路,23.100430994020087,113.2758871589743
1253,1254,站西路,23.231861253292575,113.83414464793442
1254,1255,骏威锦东花园C区,23.413313046831746,113.23702597394731
1255,1256,从化怡景楼,23.44609690294182,113.5003965731087
1256,1257,聚德花园,23.089946050068352,113.33700297547783
1257,1258,东湖洲花园1区,22.931916063122625,113.4231722128496
1258,1259,金名都,23.16443736053909,113.26591386218874
1259,1260,乐得花园,23.22897530255749,113.28154464754884
1260,1261,城西花园,23.163293645823124,113.21626703192408
1261,1262,环市西路7号大院,23.14697904045876,113.24463596907258
1262,1263,富贵楼,23.47441785180992,113.23218015470587
1263,1264,紫荆花园,23.199164234750246,113.26556675693979
1264,1265,金碧新城,23.209516797103795,113.24826593180664
1265,1266,万科东荟城,23.164761310184613,113.51005973530688
1266,1267,豪进山湖珺璟,23.12421410315428,113.59716527651139
1267,1268,碧桂园城市花园花岸苑,23.279160557125746,113.68621268473618
1268,1269,南沙碧桂园,22.801756983727177,113.56431801690549
1269,1270,景泰新村,23.167657883167358,113.27455592051408
1270,1271,晓港湾,23.075949541056513,113.3004741904016
1271,1272,萝岗敏捷广场,23.008297573490914,113.3532574543533
1272,1273,西关海,23.13727734567492,113.2351649544229
1273,1274,金泽华庭,23.121443294369435,113.62500879476727
1274,1275,雅园大厦,23.55592897886704,113.30190078938153
1275,1276,碧泰豪苑,23.41809504565049,113.2151739737799
1276,1277,金碧花园第二金碧,23.071705473192697,113.29507151157473
1277,1278,港湾路港湾西三街,23.110941248436223,113.45251841656206
1278,1279,吉祥北园,23.04983697231497,113.30583994887203
1279,1280,云峰花园1期,23.38388399015449,113.25320113244628
1280,1281,富力金港城南区,23.462304994070827,113.36406191370155
1281,1282,双晖轩小区,22.80711775365457,113.40363882903321
1282,1283,文船生活区东区,23.102147897300764,113.48385939748933
1283,1284,十三甫路,23.117787434015682,113.2508001917851
1284,1285,万和苑,23.112479044461015,113.21980222342687
1285,1286,西城花园,22.942119007824108,113.35970504214903
1286,1287,黄沙大道南站新街,23.116646194325405,113.24305773612261
1287,1288,金碧花园第二金碧,23.071705473192697,113.29507151157473
1288,1289,星汇金沙雅筑,23.165925861081536,113.20355403268996
1289,1290,金名都,23.16443736053909,113.26591386218874
1290,1291,新都盛世名门宏城汇,23.12907748167652,113.60523807863524
1291,1292,广晟海韵兰庭,22.81283034853269,113.55174479400868
1292,1293,海印又一城海印星玥,23.00627664412365,113.35673820854221
1293,1294,新康花园康馨苑,23.11904351963847,113.59603916072446
1294,1295,碧桂园中新首府,23.357859284105853,113.6399175221587
1295,1296,新福港鼎峰,23.184890068842357,113.49357412242377
1296,1297,君华香柏御府,22.920726314991125,113.36268049948876
1297,1298,恒盛花园,22.91422904779738,113.3543008362028
1298,1299,荔京阁,23.136540413878297,113.2502906225949
1299,1300,悦时代花园心悦湾,23.109543704963116,113.47360973162387
1300,1301,荔建花园,23.298803207374792,113.82710229206072
1301,1302,集贤苑,23.23984488172813,113.30446823635873
1302,1303,侨诚花园,23.074898324192294,113.29852298100401
1303,1304,黄埔花园,23.104960992043384,113.4644519561054
1304,1305,新景花苑,23.20132962829505,113.27387626256544
1305,1306,天河北苑,23.172881139800015,113.33327536693484
1306,1307,东坑劳教所宿舍,23.16194059588004,113.2556210776588
1307,1308,金名都,23.16443736053909,113.26591386218874
1308,1309,富力君湖华庭,23.146111235511288,113.25599872529507
1309,1310,逸泉山庄,23.50856726287856,113.56498231382992
1310,1311,中信君庭,23.109360306413194,113.31124487346267
1311,1312,金碧花园第一金碧,23.07561697939704,113.29350998710724
1312,1313,人盛巴厘天地,23.498195851359295,113.54234393701933
1313,1314,金融街融穗御府,23.219333340315075,113.51266967213472
1314,1315,锦绣御景国际四期,23.295390876723815,113.8186298338156
1315,1316,蓬莱阁,23.1184072783259,113.24322176670867
1316,1317,环市西路,23.21322313128247,113.24718693214369
1317,1318,松柏新村,23.16603691650578,113.27150554449484
1318,1319,盛大蓝庭,23.08504616377622,113.23832483388375
1319,1320,英豪花园,23.074854187365055,113.30381193435338
1320,1321,君华香柏广场,23.189121712806227,113.33129307616663
1321,1322,翠华花园,23.38809199332065,113.20340958516401
1322,1323,万科府前一号,22.798132321417484,113.52609260221314
1323,1324,金鹤苑,23.06813998244027,113.23132164413029
1324,1325,侨诚花园,23.074898324192294,113.29852298100401
1325,1326,万科金色康苑,23.136141372324325,113.25357895974365
1326,1327,双子星城,23.095396592455398,113.3055309317767
1327,1328,万华花园,23.07641426154223,113.30697953924161
1328,1329,惠百氏广场,23.128698690775014,113.60050562554913
1329,1330,保利花园,23.077387584285614,113.28025351303977
1330,1331,泽德花苑,23.18235772814676,113.24540024740021
1331,1332,保利香雪山花园,23.181776522913943,113.48190998470277
1332,1333,金色港湾,23.120637225506034,113.61830977125938
1333,1334,翡翠绿洲森林半岛,23.141714967627404,113.56704706904391
1334,1335,东华花园,22.94687147690684,113.3981809044175
1335,1336,海怡花园,23.036338019502168,113.35917297579566
1336,1337,文昌南路,23.12136977180246,113.25095567589257
1337,1338,越秀岭南雅筑,23.13526012014849,113.27342648099675
1338,1339,葛洲坝保利曼城,23.077489404570812,113.25225494725292
1339,1340,中旅侨苑,23.093252155707184,113.28034666732114
1340,1341,大运家园,23.407708152595543,113.24213607466967
1341,1342,金迪城市花园,23.175347049976477,113.26387183410414
1342,1343,中意花苑,23.179269371275943,113.26532834665751
1343,1344,优山悦海,22.765940364848813,113.61152100703106
1344,1345,碧桂园天玺湾,22.807758060056322,113.58573146432306
1345,1346,锦绣御景国际二期,23.296255128654916,113.81584239181907
1346,1347,富力金港城东区,23.463730703893827,113.3689116854872
1347,1348,增槎路,23.168485921179645,113.22988172956778
1348,1349,保利塞纳维拉,23.08422707432734,113.2107434411756
1349,1350,丽江花园左岸,23.038319332820464,113.31187521443881
1350,1351,紫薇花园,23.40963904640948,113.2396094107626
1351,1352,新华路,23.382707119372878,113.2254817528254
1352,1353,黄埔万科中心,23.10164354335966,113.47555195796635
1353,1354,金道花园,23.07800074901985,113.24158262864516
1354,1355,广州雅居乐花园雅逸庭,23.013889003907718,113.36950798068455
1355,1356,宏诚海峰花园,23.559478530286448,113.6182653949672
1356,1357,金花小区,23.134327849167413,113.25632849324768
1357,1358,蓬莱路,23.11892824360804,113.2431720940072
1358,1359,宝铼雅居,23.402281449702524,113.17074773581531
1359,1360,海滨花园,23.042514747558634,113.31474107850634
1360,1361,逸景翠园,23.08945403334804,113.31296701495528
1361,1362,广丰西路,23.30430717331783,113.83659699951822
1362,1363,红珠路,23.38758913008131,113.22849999376162
1363,1364,锦绣新城二期,22.88974731231453,113.4595694859992
1364,1365,绿湖国际城,23.20727115771896,113.79513393456548
1365,1366,珠岛花园,23.13668937911409,113.23120181017529
1366,1367,昊龙花园南区,22.920230261935295,113.36610205534458
1367,1368,东城雅苑,23.112529234844825,113.55096344787637
1368,1369,云峰花园4期,23.385236254527165,113.25102058565207
1369,1370,番禺海伦堡,22.932114641992044,113.36954490104098
1370,1371,江南大道北,23.1128690996927,113.27856874105638
1371,1372,萝岗敏捷广场,23.008297573490914,113.3532574543533
1372,1373,大城云山,23.4653147708202,113.49918448948449
1373,1374,金碧世纪花园,23.12051782286747,113.4358903324251
1374,1375,墩美小区,23.08322953208979,113.53152833868276
1375,1376,嘉骏豪苑,23.124159264185938,113.63703324282821
1376,1377,惠百氏广场,23.128698690775014,113.60050562554913
1377,1378,万科金色梦想,23.170079951628168,113.535925274661
1378,1379,珠江源昌花园,22.726416399827766,113.53159113023789
1379,1380,保利城花园伊顿印象,23.38243800464605,113.16989497439498
1380,1381,天马河壹号二期帝景湾,23.387499008486127,113.19069802321873
1381,1382,华侨城(番禺),22.93856211691919,113.35947184203873
1382,1383,光复北路,23.132055453852335,113.25976561583968
1383,1384,宝铼雅居,23.402281449702524,113.17074773581531
1384,1385,广州海伦堡,23.10644899708362,113.56502049181407
1385,1386,天马河壹号五期,23.38482005347002,113.19245699523722
1386,1387,乐得花园,23.22897530255749,113.28154464754884
1387,1388,宝盛园,23.12694073454431,113.24595288494976
1388,1389,锦绣御景国际一期,23.296255128654916,113.81584239181907
1389,1390,西关海,23.13727734567492,113.2351649544229
1390,1391,万虹花园,23.474630740582665,113.19201233400993
1391,1392,汇丽国际,23.186763609306183,113.48150260315411
1392,1393,汉苑,23.11999201790292,113.31689835918785
1393,1394,富力金港城北区,23.4658479822845,113.36448250034117
1394,1395,路劲隽泷湾,23.08718308661848,113.21566211299387
1395,1396,南航花园,23.407945028345228,113.23868011371282
1396,1397,东圆新村,22.91704369513721,113.35547581980947
1397,1398,欣荣宏国际商贸城,23.537686443893833,113.59749513429455
1398,1399,朝阳西路,23.030180330322963,113.3140167586044
1399,1400,华南新城,23.026830049359212,113.35707246802238
1400,1401,丽江花园德汇楼,23.04175650478321,113.30664393230319
1401,1402,海傍居,23.103463579764835,113.25816669581215
1402,1403,黄埔花园,23.104960992043384,113.4644519561054
1403,1404,聚宝阁,23.456376731764834,113.28166726625092
1404,1405,科技楼,23.55364106887407,113.59912259438644
1405,1406,白云大道南,23.244511501653722,113.30484417721455
1406,1407,光大花园,23.09338837081383,113.2629600540118
1407,1408,龙光峰景华庭,23.194532468744534,113.4582146616295
1408,1409,安富花园,23.128438463540583,113.25924493191542
1409,1410,新新花园,23.17141821681018,113.26167080594432
1410,1411,顺景雅苑,23.094201918655497,113.29994688506743
1411,1412,宏康花园二期康晖苑,23.11413980426966,113.55109082759765
1412,1413,保利越秀岭南林语,23.13526012014849,113.27342648099675
1413,1414,新华路,23.382707119372878,113.2254817528254
1414,1415,周门小区周门街,23.134658602147965,113.24600768158585
1415,1416,乐怡居,23.09012216169152,113.23809127445124
1416,1417,会展西岸,23.104599085023647,113.34371843797655
1417,1418,广州星河湾逸心园,23.03372884348411,113.34112395200349
1418,1419,公园前路,23.3883128358263,113.2165854533798
1419,1420,金马香颂居,23.284380067539892,113.7938917577067
1420,1421,保利中航城,23.279121218926768,113.67810835208894
1421,1422,金碧花园第三金碧,23.071705473192697,113.29507151157473
1422,1423,西华路,23.348653445764082,113.29946332721155
1423,1424,芙蓉春晓,23.428479930137353,113.21909313968467
1424,1425,富多来花园一区,23.174413316886135,113.2427503359772
1425,1426,晓港湾,23.075949541056513,113.3004741904016
1426,1427,瑞晖花园,23.208449284487006,113.22720237438509
1427,1428,晓港湾,23.075949541056513,113.3004741904016
1428,1429,凯德新玥,22.836066004270062,113.35072396332436
1429,1430,水电广场,23.126740243963734,113.60924452120842
1430,1431,新景豪庭,23.12808301823635,113.59140839582206
1431,1432,碧桂园城市花园花岸苑,23.279160557125746,113.68621268473618
1432,1433,穗芳阁,23.112781931505406,113.2192195824733
1433,1434,增乐楼,23.158493989844075,113.22950904327284
1434,1435,阳光城丽景湾,22.82518766659142,113.55028127467232
1435,1436,锦绣御景国际二期,23.296255128654916,113.81584239181907
1436,1437,翠怡轩,22.91294528533941,113.35551013507994
1437,1438,锦绣银苑,23.11259787265685,113.61016779961128
1438,1439,丽江花苑,23.064197499385756,113.53828952493193
1439,1440,白天鹅花园,23.192195721691004,113.34462842145786
1440,1441,沙面新城,23.11344911153068,113.25105184668381
1441,1442,圣雅堡,23.156240755469632,113.22933171776522
1442,1443,荣翠轩,23.408632521092525,113.26606334022554
1443,1444,万科金色梦想,23.170079951628168,113.535925274661
1444,1445,恒荔湾畔,23.107223740341382,113.23865523065021
1445,1446,阳光花园,23.18747318745233,113.23802524899628
1446,1447,南沙保利城,22.836824080936132,113.50456722592904
1447,1448,新时代家园,23.556346953293684,113.58891056752184
1448,1449,新世界逸彩庭园,23.117144674705777,113.21325447456682
1449,1450,万科金色梦想,23.170079951628168,113.535925274661
1450,1451,东浚荔景苑,23.132308750910454,113.24680654467561
1451,1452,东晓路雅墩街,23.10373715232373,113.2911846334649
1452,1453,保利塞纳维拉,23.08422707432734,113.2107434411756
1453,1454,富域尚品居,23.10230479594469,113.5479039989715
1454,1455,星汇文华,23.21665917784138,113.22999870960616
1455,1456,广州融创文旅城商务公寓,23.434588034956132,113.24227899507626
1456,1457,紫莱苑,23.10853862461583,113.22149481066822
1457,1458,南沙碧桂园豪庭,22.795684590565177,113.55231503834624
1458,1459,南沙保利城,22.836824080936132,113.50456722592904
1459,1460,鸣翠花园,23.074061384383718,113.29164276927483
1460,1461,景新花园,23.290466814395845,113.79174426855526
1461,1462,官洲南苑,23.083037619464143,113.38665941761143
1462,1463,悦涛雅苑,23.099788411864008,113.46344926749552
1463,1464,广州雅居乐花园剑桥郡,23.016769409270093,113.36801320031643
1464,1465,岭南雅院,23.163597247431778,113.2375081843449
1465,1466,光复中路,23.12463606117029,113.25810777505546
1466,1467,西场电器城,23.145232874209007,113.23974819896384
1467,1468,番禺海伦堡花样年华一期,22.93037655723567,113.36192915676045
1468,1469,翠馨华庭,23.090161722363813,113.32185925136507
1469,1470,馨泉花园,23.410185004390783,113.26622000470644
1470,1471,美景阁,23.136867090350446,113.6217304288097
1471,1472,东澳广场,23.117534217663575,113.54856730775985
1472,1473,元邦航空家园,23.211099367024065,113.26543641281035
1473,1474,华南碧桂园漾翠苑,22.99981114440313,113.35936584198858
1474,1475,海龙湾,23.03305236670352,113.30681407136672
1475,1476,逸泉山庄,23.50856726287856,113.56498231382992
1476,1477,远景工商局宿舍,23.17835294138488,113.26188918401371
1477,1478,碧桂园城市花园花岸苑,23.279160557125746,113.68621268473618
1478,1479,祈福都会花园,23.437620002400497,113.27047608638075
1479,1480,鸿城花园,22.952309818348905,113.37262123808944
1480,1481,南沙碧桂园,22.801756983727177,113.56431801690549
1481,1482,鑫润花园,22.95381808154444,113.39339778690066
1482,1483,白沙新村,23.18865904814281,113.26270709118027
1483,1484,中海誉城北苑,23.16838317937296,113.53315184623041
1484,1485,革新路,23.09554221476949,113.26103406274478
1485,1486,富力路,23.311718467784395,113.83660966293098
1486,1487,新都盛世名门,23.13163410502189,113.60548089061452
1487,1488,祈福万景峰祈福天龙苑,23.377225541005387,113.20211719302723
1488,1489,金地荔湖城公园上城,23.227994956611656,113.6018009820941
1489,1490,万科东荟城,23.164761310184613,113.51005973530688
1490,1491,中海金沙里,23.156487553996275,113.21336254071963
1491,1492,广晟海韵兰庭,22.81283034853269,113.55174479400868
1492,1493,时代倾城(增城区),23.285011277913476,113.85256844478522
1493,1494,顺欣花园,23.152484559707073,113.62383381116061
1494,1495,岭南新世界锦云峰,23.242499979091193,113.30572110305309
1495,1496,尚东尚筑,22.94501069569993,113.41210041778167
1496,1497,花城路,23.38729026947369,113.2195094548816
1497,1498,华标荔苑,23.45653320886069,113.49649083058316
1498,1499,南沙境界家园,22.818877068287442,113.53263639852895
1499,1500,祈福新村蝶舞轩,22.966317982723524,113.33186799169283
1500,1501,芭堤水岸,23.108855398176544,113.31972766222115
1501,1502,大墩一街,23.161372306710618,113.30179684285778
1502,1503,时代糖果二期,23.16284634095344,113.21365269339927
1503,1504,芙蓉春晓,23.428479930137353,113.21909313968467
1504,1505,大沙地东路,23.108168692553118,113.48306250977338
1505,1506,锦丽居,23.078187515593374,113.29733560078132
1506,1507,珠光御景山水城,23.593203496351965,113.6225473478402
1507,1508,广雅路,23.145789490938323,113.2491889497009
1508,1509,西华苑,23.139505895552357,113.24977670201282
1509,1510,合景天峻广场,23.067488202325936,113.39871297077089
1510,1511,建设路(花都区),23.372951257334403,113.20727023275298
1511,1512,怡芳苑,23.100705301981566,113.23793622692027
1512,1513,逸泉山庄,23.50856726287856,113.56498231382992
1513,1514,万华花园,23.07641426154223,113.30697953924161
1514,1515,中海誉城南苑,23.164355043977228,113.53881799806328
1515,1516,金港花园,23.10296355215792,113.45190577220447
1516,1517,保利公园九里,23.08573002271869,113.21817997350693
1517,1518,金道花园,23.07800074901985,113.24158262864516
1518,1519,碧桂园豪进广场,23.127009531076503,113.59821530582167
1519,1520,朗悦君廷,23.35903573219703,113.25701821221801
1520,1521,碧桂园星港国际,23.39312110328464,113.25496666209501
1521,1522,群星新邨,23.135459600860717,113.60803656978956
1522,1523,万科城市花园,23.112610337146748,113.47363668078916
1523,1524,锦绣天伦花园,23.132460628846506,113.64539835356491
1524,1525,荔湾路,22.8030093278675,113.40578784620234
1525,1526,宏康花园三期建鑫苑,23.113034129106897,113.55218298743631
1526,1527,沙园中路,23.303911240844283,113.83801369108666
1527,1528,中海誉城北苑,23.16838317937296,113.53315184623041
1528,1529,升平大厦,22.93960692026583,113.37218852432542
1529,1530,祈福都会花园,23.437620002400497,113.27047608638075
1530,1531,桥东小区,23.117496991764813,113.21981066749868
1531,1532,祈福新村E区,22.966294024602117,113.33688996864471
1532,1533,敏捷锦绣星辰,23.265043447607095,113.84927965848374
1533,1534,和平大酒店,23.179157330296707,113.25946636422356
1534,1535,华标荔苑,23.45653320886069,113.49649083058316
1535,1536,翠馨华庭,23.090161722363813,113.32185925136507
1536,1537,嘉汇华庭,23.107980861986515,113.28280272441516
1537,1538,金碧新城,23.209516797103795,113.24826593180664
1538,1539,科城山庄锦泽园,23.193208804355187,113.49174975376415
1539,1540,广东省源天工程公司宿舍,23.12791501640758,113.6243294063103
1540,1541,金碧雅苑,23.229177879910864,113.29829840462659
1541,1542,翡翠绿洲湖绣苑,23.14115493520078,113.56412443206817
1542,1543,敏捷莱茵花园,23.287125719324614,113.84844019198493
1543,1544,京桂花园,23.090879796385014,113.27402484229675
1544,1545,时代花生Ⅱ,23.19950404344717,113.33819601502525
1545,1546,碧桂园凤凰城凤盈苑,23.134504815823316,113.56930711587572
1546,1547,华园新村,23.170019483517407,113.26311528120387
1547,1548,增城时代廊桥,23.197755995750374,113.62381800098363
1548,1549,万科东荟城,23.164761310184613,113.51005973530688
1549,1550,云泉居,23.105964520561812,113.22696764715539
1550,1551,新世纪花苑,23.104767282576415,113.46966832636959
1551,1552,茶滘路公安小区,23.0941108321288,113.23231534968508
1552,1553,保利林语山庄,23.188750900204404,113.4612718647706
1553,1554,南沙·富力唐宁,22.769485248530042,113.59496343987662
1554,1555,怡港花园,23.105254422705386,113.46075156621939
1555,1556,港湾一村,23.10668633176371,113.45284926248128
1556,1557,万科四季花城玫瑰苑,23.16127698250209,113.19374803991575
1557,1558,环翠园,23.13712428610864,113.24059187941378
1558,1559,豪利花园,23.366603597679614,113.25686145790658
1559,1560,时代水岸,23.135336306695006,113.27143134445974
1560,1561,海滨花园,23.042514747558634,113.31474107850634
1561,1562,广花五路新市新街,23.197072548488283,113.26426601056177
1562,1563,公园里（春晓花园）,23.27033389947298,113.84053681028021
1563,1564,石楼碧桂园,23.393765887402207,113.23278704990821
1564,1565,碧桂园中新首府,23.357859284105853,113.6399175221587
1565,1566,中海誉城南苑,23.164355043977228,113.53881799806328
1566,1567,大运家园,23.407708152595543,113.24213607466967
1567,1568,和馨雅居,23.193111806531395,113.2634974203677
1568,1569,碧桂园凤凰城凤馨苑,23.14601860617728,113.6044769443769
1569,1570,科城山庄锦泽园,23.193208804355187,113.49174975376415
1570,1571,南堤西路,22.649317247035277,113.61444234146381
1571,1572,银丰花园,23.114446925391732,113.4616804141164
1572,1573,富力半岛花园,23.147904742649704,113.23355626891616
1573,1574,东骏花园,23.407707240577473,113.2208662663031
1574,1575,紫泉翠荔嘉园,23.448331500951248,113.49350737832441
1575,1576,中大城,22.799288995585655,113.5441659700846
1576,1577,增城富丽花园,23.300159916553266,113.82927349647763
1577,1578,时代花生Ⅱ,23.19950404344717,113.33819601502525
1578,1579,岭南新世界,23.23844728767068,113.3005949226621
1579,1580,珠江金茂府,23.07613498060088,113.25359216483464
1580,1581,嘉茗华庭,23.10845361416383,113.23260801762014
1581,1582,丰乐小区77号大院,23.109811281912638,113.4604135338561
1582,1583,远航钢社区钢管小区,23.0963320457057,113.49798201772921
1583,1584,滨江中路,23.117826084634306,113.28451021993473
1584,1585,富丽家园百丰楼,23.02784622416874,113.31995825724549
1585,1586,大展雅苑,23.069873198269743,113.31880743805702
1586,1587,富和花园,23.200248015498516,113.3345603031359
1587,1588,赤岗苑,23.09423283487117,113.33768020800159
1588,1589,新月明珠花园,23.02185848889568,113.32605038555104
1589,1590,昌岗中路,23.092994774513297,113.27863923558125
1590,1591,越秀岭南雅筑,23.13526012014849,113.27342648099675
1591,1592,富力泉天下,23.641979543138874,113.65856679369243
1592,1593,嘉汇城西区,23.34019885378686,113.23203948006307
1593,1594,越秀滨海悦城,23.13526012014849,113.27342648099675
1594,1595,梅苑小区,23.183210013911562,113.32835400020006
1595,1596,景新花园,23.290466814395845,113.79174426855526
1596,1597,中海金沙里,23.156487553996275,113.21336254071963
1597,1598,东怡新区东雅园,22.937061253497376,113.39720489548124
1598,1599,中海金沙馨园二期,23.15385390505975,113.21111560914825
1599,1600,南洲名苑,23.072671432584226,113.30231454889928
1600,1601,华发四季名苑,23.23707508246236,113.30396168188184
1601,1602,南华时代城,23.37340672314545,113.20077135171263
1602,1603,南沙碧桂园豪庭,22.795684590565177,113.55231503834624
1603,1604,如意二马路,23.204109394852658,113.2655722366034
1604,1605,吉祥北园,23.04983697231497,113.30583994887203
1605,1606,科城山庄,23.190794052263374,113.49063899900143
1606,1607,沙面新城,23.11344911153068,113.25105184668381
1607,1608,萝岗万达广场,23.179887712853294,113.27331634874126
1608,1609,芳村大道西,23.107633090150294,113.23479431356961
1609,1610,番艺花园,22.959727008187283,113.37899426652788
1610,1611,锦绣御景苑一二期,23.3071223942383,113.82589748471113
1611,1612,富力金港城北区,23.4658479822845,113.36448250034117
1612,1613,龙津东路,23.127996380999367,113.25690356507904
1613,1614,广州海伦堡,23.10644899708362,113.56502049181407
1614,1615,华发四季名苑,23.23707508246236,113.30396168188184
1615,1616,东澳广场,23.117534217663575,113.54856730775985
1616,1617,朗悦君廷,23.35903573219703,113.25701821221801
1617,1618,心江南,23.0813943406786,113.29254206292056
1618,1619,东怡新区东倩园,22.939470547973585,113.39690036991345
1619,1620,金德苑,23.164423405767323,113.23869951711184
1620,1621,新基上村,23.111877007666134,113.22163800056647
1621,1622,多宝路,23.12265618055705,113.24152380041394
1622,1623,世纪广场,23.129793766581027,113.25295436792277
1623,1624,芙蓉春晓,23.428479930137353,113.21909313968467
1624,1625,萝岗万达广场,23.179887712853294,113.27331634874126
1625,1626,广州雅居乐花园浅山小筑,23.010730698229786,113.3754513495977
1626,1627,中海金沙馨园二期,23.15385390505975,113.21111560914825
1627,1628,新世界凯粤湾,23.120844704991917,113.2201024371282
1628,1629,祈福万景峰,23.375834050571104,113.20464897727572
1629,1630,万科天景花园,23.379524590181703,113.18885523929616
1630,1631,荔富湖畔,23.28546231844429,113.75560202433985
1631,1632,镇安社区,23.55048690697809,113.59715225108151
1632,1633,富丽花园,23.300159916553266,113.82927349647763
1633,1634,白天鹅花园,23.192195721691004,113.34462842145786
1634,1635,西关大厦,23.118456386259517,113.2555784081471
1635,1636,碧桂园蜜柚,22.805898681140704,113.56840521714399
1636,1637,岭南雅院,23.163597247431778,113.2375081843449
1637,1638,白云山制药厂前山宿舍,23.206489027866336,113.32770497446931
1638,1639,万科欧泊,23.016511873394013,113.36258402147702
1639,1640,时代糖果一期,23.16284634095344,113.21365269339927
1640,1641,锦绣半岛,23.047516880028358,113.26405041723945
1641,1642,合生湖山国际,23.137943571695544,113.57359176366525
1642,1643,白云高尔夫花园荷塘月色,23.205058446495876,113.27721993533359
1643,1644,番禺华景新城,22.932276983015317,113.37231572438559
1644,1645,宝岗大厦,23.103981804827303,113.26851176172273
1645,1646,万科山景城,23.217233006010012,113.53128301144808
1646,1647,光复北路,23.132055453852335,113.25976561583968
1647,1648,黄埔花园,23.104960992043384,113.4644519561054
1648,1649,新光城市广场,23.13057610048109,113.25445858049872
1649,1650,聚德花园,23.089946050068352,113.33700297547783
1650,1651,紫薇苑,23.412090989270244,113.22780998823184
1651,1652,雅居乐锦城花漾集,23.423282587090668,113.19735042467066
1652,1653,南华东路,23.115898894192167,113.27142163287888
1653,1654,金丽园,23.10766682862879,113.46539912943483
1654,1655,合和新城,23.378914068557403,113.26294568112365
1655,1656,金碧花园第二金碧,23.071705473192697,113.29507151157473
1656,1657,南沙万达广场,22.800845871503,113.53886812351071
1657,1658,芳华花园洛湖居,23.05153526055621,113.30930327593404
1658,1659,和平新村,23.144241107329456,113.24389855007966
1659,1660,珠江嘉园,22.71724049155721,113.54732764615649
1660,1661,金竹家园,23.292871693095986,113.81507775416922
1661,1662,宏润天睿,23.58294498376612,113.51643500950911
1662,1663,保利东江首府,23.11516902284898,113.63808902129374
1663,1664,逸泉山庄,23.50856726287856,113.56498231382992
1664,1665,丰庭花园,22.796382923455848,113.54405619715133
1665,1666,广州绿地中央广场,23.169771298180045,113.43696919734224
1666,1667,富力天海湾,22.753730089865286,113.57038930452323
1667,1668,鹤苑小区,23.087732874713396,113.25544977079811
1668,1669,中海誉城南苑,23.164355043977228,113.53881799806328
1669,1670,西华路,23.348653445764082,113.29946332721155
1670,1671,合景誉山国际,23.19553357508218,113.60127547337095
1671,1672,招商城市主场,23.017166397728225,113.35880601799495
1672,1673,朗悦君廷,23.35903573219703,113.25701821221801
1673,1674,合景天峻广场,23.067488202325936,113.39871297077089
1674,1675,宏康花园三期建鑫苑,23.113034129106897,113.55218298743631
1675,1676,金碧世纪花园,23.12051782286747,113.4358903324251
1676,1677,祈福新村翠怡居,22.973429029192275,113.33482602190567
1677,1678,金碧花园第一金碧,23.07561697939704,113.29350998710724
1678,1679,珠岛花园,23.13668937911409,113.23120181017529
1679,1680,荔富湖畔,23.28546231844429,113.75560202433985
1680,1681,如意花园,23.04659812660723,113.30831855343435
1681,1682,和安大厦,23.072958284848042,113.29177850323734
1682,1683,芳建宿舍,23.16194059588004,113.2556210776588
1683,1684,俊怡御景花园,23.424138286990544,113.21634275907854
1684,1685,江南新村,22.965751804581114,113.36527067359538
1685,1686,东湖洲花园2区,22.932280977051335,113.42374596057861
1686,1687,富力君湖华庭,23.146111235511288,113.25599872529507
1687,1688,华贵路,23.391832931447052,113.08820729877029
1688,1689,怡港花园,23.105254422705386,113.46075156621939
1689,1690,海力花园,22.8068691427134,113.5801661023684
1690,1691,广州星河湾赏心园,23.032279353080124,113.34200716598062
1691,1692,宏康花园宏康和园,23.115382659905073,113.55353215248131
1692,1693,广州海伦堡,23.10644899708362,113.56502049181407
1693,1694,江南雅居,23.09164166535394,113.28298121771992
1694,1695,新都盛世名门,23.13163410502189,113.60548089061452
1695,1696,怡福花园,23.111638518905302,113.22429276283923
1696,1697,金马香颂居,23.284380067539892,113.7938917577067
1697,1698,华侨城(番禺),22.93856211691919,113.35947184203873
1698,1699,天马丽苑二期,23.37494336951844,113.19123287431918
1699,1700,海富花园,23.090176432946937,113.28416293861791
1700,1701,金碧领秀国际,23.104242329331253,113.46753763553117
1701,1702,海洋广场,23.53506200695083,113.60791296295143
1702,1703,丽江花园康城居,23.036017913662086,113.30798510242914
1703,1704,荔港南湾,23.14131012614732,113.23573978011855
1704,1705,明月金岸花园,23.168173199386842,113.2148350431111
1705,1706,东方名都,23.131483555495553,113.59901336043646
1706,1707,华荟南景园,22.932848212165304,113.37692537910853
1707,1708,莱茵水岸,23.532270528622945,113.60310370474424
1708,1709,汇美体育花园,23.139227328866593,113.62418909098969
1709,1710,万科幸福誉,23.337202292196523,113.5467582102939
1710,1711,萝岗万达广场,23.179887712853294,113.27331634874126
1711,1712,城央御景,23.135336306695006,113.27143134445974
1712,1713,碧桂园空港国际,23.439952473099133,113.31081090207094
1713,1714,实地常春藤,23.217526021921014,113.56494656127062
1714,1715,花都站前路,23.38204335571714,113.21609940811598
1715,1716,祈福缤纷汇,22.97513103569672,113.33921415448991
1716,1717,万科里享家,23.201815084795715,113.5731367719246
1717,1718,康裕园,22.949419037017478,113.36218400603356
1718,1719,番禺奥林匹克花园,22.92349597320427,113.37370001317602
1719,1720,合益小区,23.182108237102135,113.25556673017546
1720,1721,保利百合花园二期,23.080149670852233,113.28593493606631
1721,1722,锦绣天伦花园,23.132460628846506,113.64539835356491
1722,1723,金河湾家园,23.280189321549024,113.83033897664265
1723,1724,南沙碧桂园,22.801756983727177,113.56431801690549
1724,1725,大金钟公安宿舍,23.170115252366863,113.2853972103882
1725,1726,时代南湾,22.787738217027965,113.60084311892913
1726,1727,碧桂园豪园林湖苑,23.230738545341595,113.82297727316026
1727,1728,人盛大厦,23.556654532585647,113.59268165405147
1728,1729,学林华轩,23.110228102570666,113.27414467625175
1729,1730,万科柏悦湾,23.124239029950587,113.23014693001527
1730,1731,南箕花苑,23.07623946166459,113.27827724091847
1731,1732,桃源社区,23.13437894519795,113.2591657912
1732,1733,洪德路,23.108026524153207,113.2585704284438
1733,1734,合一国际,23.197533190670285,113.33464995402578
1734,1735,银星花园,23.400491735089783,113.23911300713795
1735,1736,中海金沙馨园一期,23.154043887733184,113.21191581969629
1736,1737,保利中航城,23.279121218926768,113.67810835208894
1737,1738,广州雅居乐花园十年小雅,23.017599308386245,113.37214702261087
1738,1739,富力广场B区,23.131016036644045,113.2454924135455
1739,1740,富丽家园,23.033536111142578,113.32428548471616
1740,1741,广州雅居乐花园雅湖居,23.012619004622458,113.37471958992951
1741,1742,大壮国际广场,23.169828277853536,113.47531669175336
1742,1743,富力泉天下,23.641979543138874,113.65856679369243
1743,1744,金碧御水山庄,23.492600648042288,113.20871030631554
1744,1745,保利塞纳维拉,23.08422707432734,113.2107434411756
1745,1746,保利公园九里,23.08573002271869,113.21817997350693
1746,1747,云港花园,23.403957051456036,113.23479197797526
1747,1748,祈福新村C区,22.970046329844173,113.33987135480079
1748,1749,敏捷伊顿公馆,22.973590155511065,113.34873412678985
1749,1750,天虹花园,23.11532623848338,113.43760986883173
1750,1751,中环品悦,23.016868115978696,113.33622378527873
1751,1752,富力金港城北区,23.4658479822845,113.36448250034117
1752,1753,广州海伦堡,23.10644899708362,113.56502049181407
1753,1754,森语星园,23.07430318231317,113.32077176271504
1754,1755,十八甫北路,23.135336306695006,113.27143134445974
1755,1756,南湖半山东苑,23.22870970989242,113.3506186819186
1756,1757,新城市花园,23.377927293077523,113.21702196787442
1757,1758,碧桂园豪园鹤鸣苑,23.221758032430788,113.82944597113548
1758,1759,西场电器城,23.145232874209007,113.23974819896384
1759,1760,花都邮电新村,23.40366992304319,113.2099048729823
1760,1761,南沙境界家园,22.818877068287442,113.53263639852895
1761,1762,奥园中环广场,22.80551955625163,113.5467123967129
1762,1763,西华路,23.348653445764082,113.29946332721155
1763,1764,南沙保利城,22.836824080936132,113.50456722592904
1764,1765,保利高尔夫郡,23.382667213942643,113.16157127554227
1765,1766,北丽园,22.949324856364232,113.36983828762045
1766,1767,怡港花园,23.105254422705386,113.46075156621939
1767,1768,中房观湖国际,23.378163559267342,113.2297788044174
1768,1769,一品湖山,23.218787170258313,113.33653909051263
1769,1770,南沙境界家园,22.818877068287442,113.53263639852895
1770,1771,越秀岭南雅筑,23.13526012014849,113.27342648099675
1771,1772,珠光御景山水城,23.593203496351965,113.6225473478402
1772,1773,金碧花园第二金碧,23.071705473192697,113.29507151157473
1773,1774,信步闲庭,23.094635991637798,113.34153160304378
1774,1775,合兴苑,23.097814080709817,113.23727848762607
1775,1776,朝晖大厦,23.11023134339601,113.2682776633069
1776,1777,碧桂园豪园挂绿湖,23.23116004969789,113.8277256262539
1777,1778,上步花园,23.175973466401732,113.24314891413184
1778,1779,广东动漫城,23.50061274249082,113.5526500164708
1779,1780,万科四季花城牡丹苑,23.16127698250209,113.19374803991575
1780,1781,富力金港城东区,23.463730703893827,113.3689116854872
1781,1782,金碧新城,23.209516797103795,113.24826593180664
1782,1783,百合雅居,23.473463121359305,113.1559053033705
1783,1784,盈富居,23.150832504284427,113.23434677776469
1784,1785,敏捷花城里,23.126947132290955,113.28274352608206
1785,1786,云峰花园1期,23.38388399015449,113.25320113244628
1786,1787,恒大御景半岛,23.18248704139586,113.2166799829669
1787,1788,大壮国际广场,23.169828277853536,113.47531669175336
1788,1789,碧桂园天玺湾,22.807758060056322,113.58573146432306
1789,1790,富力广场T区,23.130342381204468,113.24619488845407
1790,1791,新都盛世名门宏城汇,23.12907748167652,113.60523807863524
1791,1792,锦绣天伦花园,23.132460628846506,113.64539835356491
1792,1793,东方明珠花园,23.191623030491083,113.28493530169513
1793,1794,锦绣银湾,23.033855890362645,113.33306965497314
1794,1795,赤岗西路,23.09604092282231,113.33082663192904
1795,1796,锦林山庄,23.18053811039168,113.46978277049153
1796,1797,祈福新村C区,22.970046329844173,113.33987135480079
1797,1798,富康东路,23.135336306695006,113.27143134445974
1798,1799,省电力一局,23.095909945681058,113.53722161934203
1799,1800,亚太新城亚太银座一期,23.134895554039694,113.61434276429807
1800,1801,馨泉花园,23.410185004390783,113.26622000470644
1801,1802,祈福都会花园,23.437620002400497,113.27047608638075
1802,1803,金碧花园第一金碧,23.07561697939704,113.29350998710724
1803,1804,南园居,23.103885988190573,113.37725739282492
1804,1805,骊雅居,23.39531257689597,113.24182238638569
1805,1806,金翠苑,23.138077165436584,113.24006826521695
1806,1807,海力花园,22.8068691427134,113.5801661023684
1807,1808,南沙碧桂园,22.801756983727177,113.56431801690549
1808,1809,珠江嘉园,22.71724049155721,113.54732764615649
1809,1810,万科城市花园,23.112610337146748,113.47363668078916
1810,1811,保利红棉花园,23.081315795915543,113.28331125516418
1811,1812,南方花园二期合生帝景国际,23.094931273481997,113.28171730186781
1812,1813,金域蓝湾,23.162547638475665,113.21859624828012
1813,1814,侨宏花园度假村,23.643441022101193,113.64565922148493
1814,1815,源兴雅居,23.06766866618708,113.51978568906021
1815,1816,名城御景绿洲,23.537215813398713,113.60847116999514
1816,1817,雅豪苑,23.408664275675086,113.23290212284401
1817,1818,致岭假日花园,23.45113331455193,113.19525252198336
1818,1819,宝翠苑,22.940791414696783,113.35608612857274
1819,1820,逸景翠园,23.08945403334804,113.31296701495528
1820,1821,顶好大厦,23.127117711058574,113.61139596290411
1821,1822,海力花园,22.8068691427134,113.5801661023684
1822,1823,荔园路,23.171925046329775,113.6784299454614
1823,1824,富丽家园宾至路,23.033536111142578,113.32428548471616
1824,1825,南沙保利城,22.836824080936132,113.50456722592904
1825,1826,芳园居教师新村,23.077596710599234,113.22821197994742
1826,1827,华兴苑,23.17029150673783,113.27246646189856
1827,1828,富佳花园,22.807360700653636,113.55951064513988
1828,1829,凤凰御景,23.41159486712188,113.24182292536901
1829,1830,南源花园,23.13965136811024,113.2413313725941
1830,1831,卡布奇诺,23.043820793988743,113.34014911086439
1831,1832,中山八路,23.131180637034085,113.23751917601112
1832,1833,百顺台花园,23.19296365218373,113.26485134643188
1833,1834,龙光棕榈水岸南区,22.79593097321715,113.5294210037876
1834,1835,南北广场,23.107229224939122,113.26850816850069
1835,1836,龙光峰景华庭,23.194532468744534,113.4582146616295
1836,1837,逸景翠园,23.08945403334804,113.31296701495528
1837,1838,创鸿嘉园,22.804178035252875,113.54920025382197
1838,1839,君源御湖城,23.579711712977183,113.63969510171451
1839,1840,商学院宿舍,23.144219008904336,113.2802500096483
1840,1841,富力环市西苑,23.147499172405958,113.24585227473267
1841,1842,富力金港城南区,23.462304994070827,113.36406191370155
1842,1843,滨江瑞城,23.074671405884985,113.30244354557048
1843,1844,万科四季花城丹桂苑,23.16127698250209,113.19374803991575
1844,1845,祈福新村C区,22.970046329844173,113.33987135480079
1845,1846,广州海伦堡,23.10644899708362,113.56502049181407
1846,1847,环翠园,23.13712428610864,113.24059187941378
1847,1848,丰庭花园,22.796382923455848,113.54405619715133
1848,1849,万科天景花园,23.379524590181703,113.18885523929616
1849,1850,金隆园,23.108148889056242,113.46131121055193
1850,1851,珠光高派华庭,23.108205729025748,113.31129428026571
1851,1852,锦丽居,23.078187515593374,113.29733560078132
1852,1853,庄士映蝶蓝湾,22.974472146058048,113.49935426922582
1853,1854,如意花园,23.04659812660723,113.30831855343435
1854,1855,云峰花园4期,23.385236254527165,113.25102058565207
1855,1856,金碧花园第二金碧,23.071705473192697,113.29507151157473
1856,1857,西华路,23.348653445764082,113.29946332721155
1857,1858,碧桂园凤凰城凤仪苑,23.138592015180585,113.57806676239228
1858,1859,怡园小区,23.107765717223263,113.45726919508056
1859,1860,茶滘新村,23.09749088164133,113.2354251036985
1860,1861,新鸿基御华园,23.452713555998773,113.19779257064253
1861,1862,城启晴轩,23.122116413373618,113.24991719699453
1862,1863,祈福新村翠怡居,22.973429029192275,113.33482602190567
1863,1864,荔城大道,23.302117895481373,113.81553336663899
1864,1865,番禺海伦堡御院,22.931953881748367,113.36514491082401
1865,1866,东凌广场,23.14259451533562,113.59998424903132
1866,1867,三村远洋宿舍,23.110816103330798,113.44966189487182
1867,1868,保利红棉花园,23.081315795915543,113.28331125516418
1868,1869,富雅名居,23.18116026650545,113.6813202434388
1869,1870,嘉汇城,23.340657004879432,113.23932895978247
1870,1871,荔港南湾,23.14131012614732,113.23573978011855
1871,1872,森语星园,23.07430318231317,113.32077176271504
1872,1873,锦绣御景国际二期,23.296255128654916,113.81584239181907
1873,1874,恒德苑,23.179718447843772,113.24223425946188
1874,1875,光复中路,23.12463606117029,113.25810777505546
1875,1876,光复中路,23.12463606117029,113.25810777505546
1876,1877,新鸿基御华园,23.452713555998773,113.19779257064253
1877,1878,佳星楼,23.153882066041675,113.23438756083482
1878,1879,文昌花园,23.123435470768786,113.25034182600896
1879,1880,金泽豪庭,23.129913825556006,113.59613357263352
1880,1881,紫茗花园,22.80846882324933,113.5584861277061
1881,1882,江南苑,23.098281467223426,113.26877721100085
1882,1883,汇东国际花园,23.124520203888462,113.59031147496418
1883,1884,豪利花园,23.366603597679614,113.25686145790658
1884,1885,时代春树里,23.166089246254554,113.51721563699702
1885,1886,新利综合楼,23.123661474877217,113.6101882809769
1886,1887,碧桂园天玺湾,22.807758060056322,113.58573146432306
1887,1888,泰景花园,23.116150869658913,113.46099716294573
1888,1889,奥园春晓,23.217251604942366,113.5055509602927
1889,1890,华南新城,23.026830049359212,113.35707246802238
1890,1891,西华路,23.348653445764082,113.29946332721155
1891,1892,萝岗敏捷广场,23.008297573490914,113.3532574543533
1892,1893,广州融创文旅城商务公寓,23.434588034956132,113.24227899507626
1893,1894,新景豪苑,23.40710439524532,113.20693372750904
1894,1895,一德花园,23.120261069439362,113.26776509018309
1895,1896,富国路,23.300509879531457,113.83799185866957
1896,1897,飞鹅西路,23.16007702417828,113.27288069392502
1897,1898,富力金港城北区,23.4658479822845,113.36448250034117
1898,1899,雍翠雅园,23.06307021104388,113.53405670937032
1899,1900,保利城花园塞汶西街,23.381939862798554,113.17057499166579
